,lat,lon,name
0,49.1266497,-123.1824699,Best Bite Indian Cuisine
1,49.1327053,-123.0991859,Nando's
2,49.1330103,-123.0955358,Boston Pizza
3,49.2457903,-122.891636,Pho 99
4,49.2457299,-122.891401,Insadong
5,49.2462257,-122.8918439,Best Sushi N Kitchen
6,49.2451974,-122.892176,WINGS Tap and Grill
7,49.2687365,-123.0457293,Fuku Ramen
8,49.281302,-123.0575579,Tacofino Commissary
9,49.2812984,-123.0573443,Miyako Sushi
10,49.2812866,-123.055091,Bad Apple Vegan Restaurant & Bar
11,49.2832655,-123.0978958,St Lawrence Restaurant
12,49.2832876,-123.0980745,Cuhillo
13,49.2796054,-123.100279,MILA
14,49.2796207,-123.1011093,Gold Stone Bakery & Restaurant
15,49.2831638,-123.1035309,The Sardine Can
16,49.2834234,-123.1064112,Jules Bistro
17,49.2427766,-123.004051,Royal Paan
18,49.2258237,-122.994418,Uncle Willy's
19,49.2271784,-122.994952,Cattle Cafe
20,49.2272795,-122.994524,Morak Korean Restaurant
21,49.2271279,-122.994661,Dae-Ji Cutlet House
22,49.2280713,-122.997509,Happy Lamb Hot Pot
23,49.2300571,-123.003696,Dinesty Dumpling House
24,49.2316909,-123.00871,Ramie's Greek Restaurant
25,49.2318234,-123.0090888,Pizza Hut
26,49.2313081,-123.008923,Bubble World
27,49.2313875,-123.009081,Pho 24 Express
28,49.1922303,-123.0924535,Cafe Loyal
29,49.1922386,-123.0923067,Pho Japolo
30,49.2665754,-123.103744,Peaceful Restaurant
31,49.2798592,-122.7997004,Ricky's Bar & Grill
32,49.2785219,-122.8142905,Coquitlam Grill
33,49.2565154,-122.7481768,Poco Sushi
34,49.2821191,-123.133662,NeNe Chicken
35,49.2814778,-123.133602,The Italians
36,49.291387,-123.135016,Banana Leaf
37,49.2907725,-123.134078,Dinesty Dumpling House
38,49.2623182,-123.0884901,Nha Trang Restaurant
39,49.3264332,-123.1392875,White Spot
40,49.1203849,-122.6632837,Umami Sushi
41,49.2873953,-123.128838,JoongWon
42,49.287665,-123.12925,Stepho's Souvlaki Greek Tavern
43,49.2873464,-123.1283402,miss KOREAN BBQ
44,49.2870639,-123.128927,Forage
45,49.2874858,-123.12898,Miko Sushi
46,49.2875631,-123.129718,Cora
47,49.2623184,-123.0895035,Hail Mary's
48,49.2863249,-123.1255978,Kirin Mandarin Restaurant
49,49.28525,-123.125406,Fantacity Karaoke
50,49.1872417,-123.131495,The Captain's Boil
51,49.1874849,-123.1312122,Kyabia
52,49.2766268,-123.1001058,Pizza Farina
53,49.1059413,-122.6624961,NY's Indian Grill & Bar
54,49.1552029,-122.6687533,S+L Kitchen & Bar
55,49.1693268,-122.6664782,White Spot
56,49.1694686,-122.665754,The Old Spaghetti Factory
57,49.1771408,-122.6734773,Zythos Greek Restaurant
58,49.3059961,-123.0105992,Y2 Cafe
59,49.2309718,-123.065371,Shun Jing Lou Seafood Restaurant
60,49.1055548,-122.7402471,The Chopped Leaf
61,49.1035937,-122.4921927,Lotus Garden Express
62,49.1772664,-122.6731048,Zythos
63,49.0513655,-122.6923459,The Biryani Chef
64,49.2010136,-122.9125269,Hub Restaurant New West
65,49.2018963,-122.91265,The Old Spaghetti Factory
66,49.2814683,-123.1172443,Glowbal
67,49.2743218,-123.126942,Kaide Sushi Bar
68,49.1968099,-123.140177,BiBo Italian Restaurant
69,49.1967246,-123.1396099,Ryuu Izakaya
70,49.1968225,-123.14042,Neptune Wonton Noodle
71,49.2909348,-123.136043,Dan Dan Noodle
72,49.1794492,-123.13416,Happy Fish House
73,49.1250427,-123.1853319,Kisamos Greek Taverna
74,49.1630451,-123.1363249,Pho Lan Beef Noodle Soup
75,49.1795513,-123.1375541,FuKuRoKu Sushi Express
76,49.26439,-123.069515,B House Restaurant
77,49.1681085,-122.6675276,Waka Sushi
78,49.2500121,-123.1008107,French Table Bistro
79,49.2498744,-123.1007808,Old Bird
80,49.2797553,-123.0999341,Virtuous Pie
81,49.2454125,-123.1015452,East is East - Main St
82,49.0576667,-122.4692292,Cor's 2 For 1 Pizza
83,49.2189528,-122.96902,Masita Korean Restaurant
84,49.2190275,-122.9694464,Roadside Spicy Pot
85,49.2842334,-123.1090325,Water Street Cafe
86,49.2635812,-123.127202,Minato Japanese Restaurant
87,49.263551,-123.1254837,Chef's Choice Chinese Cuisine
88,49.2634241,-123.117312,Cactus Club Cafe
89,49.2636456,-123.1316944,Royal Seoul House
90,49.2633439,-123.1130715,Menya Raizo
91,49.2218399,-123.0054728,The Chicken
92,49.2617901,-123.1007734,Tocador
93,49.262522,-123.1007068,Cafe Barney
94,49.2635444,-123.1006949,The Wallflower
95,49.2565248,-123.0062372,G-Be Izakaya
96,49.2193183,-123.0410871,54th Ave Cafe
97,49.2812722,-123.0472413,Le Petit Saigon
98,49.1624624,-122.655793,Ocean Park Pizza & Steakhouse
99,49.1761814,-123.1306688,Bull King BBQ
100,49.1761102,-123.1309092,Gingeri Chinese Cuisine
101,49.175972,-123.1306582,Happy Lamb Hot Pot
102,49.1764107,-123.1323338,Toku Japanese Restaurant
103,49.2848775,-123.1256192,Spicy 6
104,49.1842852,-123.0911234,Daddy's Delight Kabobs
105,49.2711045,-123.155196,Cafe Zen
106,49.2691827,-123.0694303,Federico's Supper Club
107,49.2813057,-123.1079703,Mirai Sushi
108,49.2805253,-122.964841,The Peri Peri Shack
109,49.2762369,-122.8445501,Namoo Sushi
110,49.2795471,-122.82931,Romer's Burger Bar
111,49.2764267,-122.849875,Spacca Napoli
112,49.2289206,-123.0043591,S&W Pepper House
113,49.2186313,-122.955309,Cora
114,49.2294159,-123.0052821,Blazing Flame
115,49.2290042,-123.0054102,Grand Crystal Seafood
116,49.2559475,-123.0877967,Thanh Thanh
117,49.1758794,-122.8907911,Mirch Masala
118,49.1764733,-122.8896127,Mehfil India Restaurant
119,49.1497112,-122.8645797,Maharaja Sweets and Restaurant
120,49.1911509,-122.8066783,Sabai Thai Restaurant
121,49.1863982,-122.8444496,Fresgo Inn
122,49.1876113,-122.8435939,Nahm Thai Bistro
123,49.1781171,-123.1356008,Sun Sui Wah Seafood Restaurant
124,49.2254234,-123.065527,Grillzilla Bistro
125,49.1723013,-122.6674779,Fork N Chopstick
126,49.2879922,-123.1404642,Rio Brazilian Steakhouse
127,49.1697933,-123.1378771,Kirin Seafood Restaurant
128,49.2890564,-123.1320225,Liuyishou Hotpot Robson
129,49.0763979,-122.3935046,Brambles Bistro
130,49.225024,-122.990072,Sushi Oyama
131,49.2112394,-122.9353594,Domino Pizza
132,49.1176829,-122.6694722,Legendary Noodle
133,49.1186793,-122.6698975,Wild Wing
134,49.2232465,-122.982719,Potter's Garden
135,49.2344287,-123.036072,Fighter Chicken
136,49.2623272,-123.0898418,Klasik Inasal
137,49.2286297,-122.999512,Sulmida Dessert Cafe
138,49.2257668,-122.9968006,Nando's
139,49.2273734,-123.0000139,Kawawa
140,49.2273299,-122.9999156,Kawawa Ramen
141,49.2916811,-123.1348802,Jingle Bao
142,49.2284147,-123.00452,Yunshang Rice Noodle
143,49.2275482,-122.8370119,Neptune Chinese Kitchen
144,49.2275278,-122.8372893,The Buffet
145,49.2419122,-122.8845042,Char 631 Steakhouse
146,49.251496,-122.896669,IHOP
147,49.2801333,-123.1063965,Abdul's Bbq
148,49.1960486,-123.177943,Hanami
149,49.1653656,-122.6614878,Round Table Pizza
150,49.1674933,-122.6674453,Boston Pizza
151,49.1660159,-122.6635496,Pizza Hut
152,49.1672102,-122.6661043,Montana's
153,49.168192,-122.6674367,The Barley Merchant
154,49.2640395,-123.1801008,Green Leaf Sushi
155,49.1409171,-122.6009339,The Cafe
156,49.1785496,-123.1287621,Emperor's Kitchen
157,49.178688,-123.1288073,Marine Bay Restaurant
158,49.1784635,-123.12746,Tang Vietnamese Restaurant & Bar
159,49.1784672,-123.1306647,Mui Kee Chicken Pot
160,49.178075,-123.1293075,Silver Tower Cafe Restaurant
161,49.178515,-123.1318315,Claypot Hot Pot and BBQ
162,49.17897,-123.1320471,Amigo Restaurant
163,49.178971,-123.1323526,Max Noodle House
164,49.1780926,-123.1318267,Xiaolongkan Hot Pot
165,49.2209906,-123.066042,Fat Boy Kitchen
166,49.2204323,-123.0656741,Karakoram Restaurant
167,49.0353367,-122.2665468,Cactus Club Cafe
168,49.1848929,-122.9493423,Lucky Sushi
169,49.2862529,-123.1276348,Momo Sushi
170,49.2608368,-123.1007648,Mali Thai Food
171,49.2856233,-123.1261012,Hello Nori
172,49.2643451,-123.17572,Deacon's Corner
173,49.262989,-123.1124016,Heritage Asian Eatery
174,49.2189394,-123.0911857,Dosa Hut
175,49.1485272,-122.937111,Boomers Sport Grill
176,49.1874358,-123.1107711,Chop Steakhouse Bar
177,49.2039007,-123.137794,Fresh Window Cafe
178,49.1872734,-123.128619,Richmond Ninkazu
179,49.1824408,-123.1338959,Kanae Yakiniku
180,49.2915693,-123.127516,Cardero's
181,49.2839339,-123.122349,Shabusen
182,49.2616646,-122.8909069,Pho Super Bowl
183,49.2742337,-123.123941,Do Chay
184,49.2747239,-123.122703,Capo and the Spritz
185,49.2746128,-123.1233641,Grand Chinese Restaurant
186,49.2744437,-123.123632,Saigon Xua
187,49.274335,-123.1237928,Tasty Indian Bistro
188,49.2619031,-122.890642,Katsuya
189,49.275171,-123.122572,Hapa Izakaya
190,49.2751034,-123.1220829,The Flying Pig
191,49.2752946,-123.1211862,Robba Da Matti
192,49.2751593,-123.1213923,Paulies Kitchen
193,49.274839,-123.1218884,Sushi Maro
194,49.2809073,-123.009823,Anton's Pasta Bar
195,49.2458146,-123.0900087,Masayoshi
196,49.2467148,-123.1010057,Meet on Main
197,49.2832439,-123.104844,Meet in Gastown
198,49.1524881,-122.8900312,Chongqing
199,49.2513521,-123.1011962,Bob Likes Thai Food
200,49.2507803,-123.1011735,The Fish Counter
201,49.1698396,-122.889851,Thai by Thai
202,49.1542575,-122.8908904,Tasty Indian Bistro
203,49.1654474,-122.8898095,Krishna's Dosa Grill
204,49.1637058,-122.890913,Desi Junction Lounge & Restaurant
205,49.1485074,-122.8714418,Mayuri Indian Cuisine
206,49.11765,-122.668976,Chuck E. Cheese's
207,49.1754035,-123.1342502,No. 9 Restaurant
208,49.1707675,-123.135859,Haidilao Hot Pot
209,49.2313896,-123.0657674,Mui Garden
210,49.2630437,-123.1016379,Fable Diner
211,49.2578328,-122.745482,Orrange Kitchen + Bar
212,49.2544616,-122.7378912,Pho 51
213,49.2580881,-122.745867,Han Sang
214,49.1708897,-122.5768044,The Bedford House
215,49.1694304,-122.5790379,1827
216,49.1696367,-122.5782942,Beatniks Bistro
217,49.1364128,-122.889114,Nando's
218,49.1607342,-122.8911245,Pinch of Spice
219,49.1687435,-122.5798414,Iron Chief
220,49.16977,-122.5765302,Tokyo Garden
221,49.23414,-123.1399405,Grand Honour
222,49.1239577,-123.1846411,Sockeye City Grill
223,49.1609291,-122.8877688,Nordel Sushi
224,49.1468811,-122.8910518,Cactus Club Cafe
225,49.1330328,-123.0964671,Browns Social House
226,49.2638283,-123.1413786,Earls
227,49.274204,-123.153753,The Boathouse Restaurant
228,49.2578148,-123.1650598,Trafalgars Bistro
229,49.3123989,-123.0778703,Meat at O'Neill's
230,49.1152983,-122.6790538,Sushi Mori
231,49.1437425,-122.7994953,Creekside Grill
232,49.3266192,-123.138036,Trattoria Italian Restaurant
233,49.0530329,-122.3170562,Denny's
234,49.1033897,-122.4834866,Colleen's Cafe
235,49.0684981,-122.35853,Chandigarh Restaurant and Rar
236,49.269316,-123.1387834,Afghan Horsemen Restaurant
237,49.2386541,-123.1298219,Shaughnessy Restaurant
238,49.2668529,-123.0090851,Sushi Garden
239,49.2609348,-123.1392811,Heirloom
240,49.2339326,-123.1536982,Ajisai Sushi Bar
241,49.2798107,-123.1224898,Chit Chat Burger Bar
242,49.2475507,-123.1013532,Restaurant Yugo
243,49.283914,-123.115705,Urban Sushi
244,49.1329664,-123.098082,Maruwa Sushi
245,49.2914507,-123.135128,Afgani Kabul Kebab Donair
246,49.2334254,-123.035338,Kung Fu Noodle
247,49.2355401,-123.0386662,Dumpling House
248,49.2448912,-123.0241063,Kimu Japanese Cuisine
249,49.2055207,-123.1312735,Cravings Restaurant and Sports Bar
250,49.2047372,-123.1308338,White Spot
251,49.204456,-123.1393553,Thai Son Restaurant
252,49.2092228,-123.1402539,Jasmine Flower Shanghai Cuisine
253,49.210139,-123.1400883,Wang's Taiwan Beef Noodle House
254,49.2110159,-123.1401483,Red Star Seafood Restaurant
255,49.2119199,-123.1406651,Bing & Noodle World
256,49.2121488,-123.1409022,Pizza Hut
257,49.2128746,-123.140187,Tai Tung
258,49.2116748,-123.1401802,Sushi King House
259,49.2116262,-123.1406792,Sushi Wow
260,49.2123453,-123.140658,Sushi Bar Shu
261,49.2132631,-123.1400563,The Meat Up
262,49.2133718,-123.1400492,Snackshot
263,49.2135568,-123.1401448,Mirchi
264,49.1878704,-123.1304038,The Real Chinese Restaurant
265,49.1881812,-123.111679,Denny's
266,49.1916688,-123.1084828,Neptune Express
267,49.1911367,-123.1142145,Moxie's Grill & Bar
268,49.193073,-123.129836,The Jade Seafood Restaurant
269,49.1787597,-123.1344503,Well Tea
270,49.1790017,-123.133654,Happy Tree House BBQ
271,49.1786679,-123.133505,Koto Izakaya Sushi Robata
272,49.179953,-123.1347099,Beijiang Restaurant
273,49.1814107,-123.1341625,Kung Fu Noodle
274,49.2863433,-123.1277909,Rise & Noodle
275,49.2590457,-123.1389288,KYO Korean BBQ & Sushi house
276,49.1776337,-123.123851,The Canadian Brewhouse & Grill
277,49.1784334,-123.121667,Nando's
278,49.1786715,-123.121079,Golden Sichuan Hotpot
279,49.1777448,-123.1211054,Bánh Mì Très Bon
280,49.1777979,-123.12176,Thai Son Restaurant
281,49.1779354,-123.125374,Tsukiji Japanese Restaurant
282,49.1703624,-123.1323842,Kingspark Steak House
283,49.1705561,-123.1323956,Chuan BBQ Restaurant
284,49.1707296,-123.132402,Pho D1 Asian Cuisine
285,49.1704519,-123.1329301,Beijing Hot Pot
286,49.1706579,-123.133061,Banzai Sushi House
287,49.1705547,-123.133066,Tsim Chai Noodles
288,49.1707529,-123.1334818,Samsoonie Noodle & Rice
289,49.1708683,-123.134169,Enjoy Cafe 1+1
290,49.1710207,-123.139394,Mui Garden
291,49.1805031,-123.1360938,Chef Tony Seafood Restaurant
292,49.1802486,-123.1340092,Gang Nam Korean BBQ
293,49.1803127,-123.1343597,Papa Goose Rice Noodle Restaurant
294,49.1880549,-123.131073,Team Lab Music Restaurant & Bar
295,49.1872375,-123.1318808,Geng Shi Ji
296,49.1872412,-123.1316835,Deer Garden Signatures
297,49.1874924,-123.1286285,Cantonese BBQ
298,49.187245,-123.1288505,Yah-Yah-Ya
299,49.1877519,-123.130436,Meet Fresh
300,49.1877413,-123.1299389,Pho 37
301,49.1742544,-123.1490557,Fortune Terrace Chinese Cuisine
302,49.1690148,-123.1339371,Newton Beef Noodle
303,49.1689882,-123.1352584,Chengdu Noodle House
304,49.1682414,-123.1392128,Pearl Castle Cafe
305,49.2257507,-123.0659387,Pho Thai Son Restaurant
306,49.2258678,-123.066145,BOX Chinese Express Kitchen
307,49.2318583,-123.0653897,Kim Phung Restaurant
308,49.2320731,-123.0658018,RGK BBQ
309,49.2319942,-123.0658214,Shun Fa Noodle House
310,49.2335229,-123.0653161,Happy Sushi
311,49.2346086,-123.0657155,Pho Hue
312,49.2353641,-123.0656869,Banh Mi Saigon
313,49.2376403,-123.0656949,La Maison Da Nang
314,49.2378772,-123.0656128,Bun Cha Ca Hoang Yen
315,49.2385372,-123.0651956,Chau Veggie Express
316,49.2386583,-123.0655595,Kozak Ukraїnian Eatery
317,49.2430252,-123.060183,17℃ Bubble Tea & Dessert Café
318,49.2426381,-123.059223,Phở Hòa
319,49.1807715,-123.134077,Royal Garden Seafood Restaurant
320,49.3334059,-123.0886973,Westview Oriental
321,49.178543,-123.1328754,Tian Shi Fu Restaurant
322,49.2830915,-123.135633,Kinara Indian Cuisine
323,49.2869536,-123.141081,The Park at English Bay
324,49.286609,-123.140588,Arike Restaurant & Cocktail Bar
325,49.2621152,-122.8898637,Pizza Factory
326,49.0227544,-123.069162,Alfa
327,49.0229238,-123.069161,Mario's Kitchen
328,49.0230662,-123.06916,Gracie's Next Door
329,49.2786045,-123.118459,Per Se Social Corner
330,49.2764803,-123.1148881,On Yogurt
331,49.290566,-123.137056,Kingyo
332,49.0365114,-122.2908143,Ra Sushi
333,49.10485,-122.8028182,Chopped Leaf
334,49.1784638,-123.1302833,The Fish Man
335,49.1918442,-122.8137613,Lee Yuen Seafood Restaurant
336,49.2322075,-123.0294423,Dragon Crepe
337,49.1699619,-122.577578,The Little Donkey
338,49.2798153,-123.123638,Freshii
339,49.2425045,-123.059877,Obanhmi
340,49.2427336,-123.060367,Ngon Banh Mi & Tea
341,49.2427566,-123.0604222,Cafe Xu Hue
342,49.2428186,-123.060566,Veggie Bowl
343,49.2786525,-123.098644,The Ramen Butcher
344,49.2786612,-123.098918,Fat Mao Noodles
345,49.2786408,-123.098014,Blnd Tger Dumplings
346,49.2790657,-123.0999382,Pacific Poke
347,49.2793572,-123.1002146,Juke
348,49.2805161,-123.100166,Pizza Coming Soon
349,49.2802926,-123.1009532,Sai Woo
350,49.2805359,-123.1010107,Jade Dynasty Restaurant
351,49.2750331,-123.07707,Truck Stop Cafe
352,49.2255504,-123.0542783,Yu Ki BBQ Kitchen
353,49.2254057,-123.0535119,Pho Thai Ha
354,49.2254858,-123.0535127,Bubble Waffle Cafe
355,49.2717729,-123.0951169,Bibi's Kitchen
356,49.3237443,-123.1111037,Sushi Man
357,49.3244385,-123.1081907,Capilano Sushi
358,49.3245337,-123.1074028,C-Lovers Fish & Chips
359,49.3240623,-123.1087802,White Spot
360,49.3240676,-123.1120326,Kypriaki Mediterranean Grill
361,49.3235304,-123.1143513,Pho Garden
362,49.3237357,-123.1151229,La Cucina
363,49.3236975,-123.1072957,Jade Garden Kitchen
364,49.3174516,-123.112028,La Taqueria
365,49.2862649,-123.1255073,Red Burrito
366,49.1585992,-122.6667359,Naomi
367,49.2658558,-123.2544402,Triple O's
368,49.1343339,-123.0651422,The Old Spaghetti Factory
369,49.1717889,-123.1359234,White Spot
370,49.1319272,-123.091692,WINGS
371,49.1644702,-123.1361623,IHOP
372,49.1708265,-123.136968,Empire Seafood Restaurant
373,49.1916327,-123.13096,Italian Tomato Restaurant
374,49.2835819,-123.1040678,Local Public Eatery
375,49.1763527,-123.1318255,Earl's
376,49.190695,-123.139231,The Deck Kitchen + Bar
377,49.2324291,-123.0903793,New Bhaia Sweet Shop and Restaurant
378,49.1643491,-122.195644,Schnitzelhaus Restaurant
379,49.2619903,-122.8905195,Grand Seasons Restaurant
380,49.2618209,-122.8907685,Donair Town
381,49.1821943,-123.135486,Sanpoutei Ramen
382,49.162471,-122.6580285,Mai's Vietnamese Restaurant
383,49.1621825,-122.6579445,Empire Garden Chinese Restaurant
384,49.2723413,-122.789067,De Dutch
385,49.2766562,-122.8310949,Joker's Pizzaria
386,49.284477,-123.065734,Scan-Delicious
387,49.1877145,-123.0806283,Hashi Sushi
388,49.2639774,-122.7668003,Jimoco Café & Pasta
389,49.2305318,-122.689248,Pad Thai Restaurant
390,49.1620011,-122.6659102,Moxies Bar & Grill
391,49.2906033,-123.1333902,Marutama Ra-men
392,49.2902063,-123.1337425,Hokkaido Ramen Santouka
393,49.2315681,-123.00515,Me + Crepe
394,49.2307097,-123.007297,Nando's
395,49.2311591,-123.006783,Hon Sushi
396,49.1865335,-122.955912,Racebook
397,49.1865802,-122.9557712,Match
398,49.1866464,-122.9555872,Shang Noodle House
399,49.1867104,-122.9554208,Kirin
400,49.1858217,-122.956558,Buffet
401,49.2192759,-122.970412,Szechuan Cuisine
402,49.2193536,-122.970685,MYST Asian Fusion
403,49.1863895,-122.8474565,Boston Pizza
404,49.1861186,-122.8474382,Ricky's
405,49.1855201,-122.8475501,Saison
406,49.1901652,-122.8042909,Togo Sushi
407,49.1885348,-122.8021256,Famoso Napolitan Pizzeria
408,49.1886303,-122.802229,Milestones
409,49.228639,-123.0046611,Kowloon
410,49.2424784,-123.0598187,Sushi by Yuji
411,49.2839381,-122.8101553,Woking Dragon China Bistro
412,49.1876519,-122.8447333,All About Pho
413,49.2401113,-123.0649493,Indian Bay Leaf
414,49.2231592,-122.932628,Indian Bombay Bistro
415,49.2769717,-122.848341,Sakeya Sushi
416,49.2770393,-122.8354693,Shawliz
417,49.2768777,-122.839686,Matsuzushi
418,49.2770439,-122.8488567,Pizza Station
419,49.1342715,-122.88959,Spice 72 Indian Bistro and Lounge
420,49.1583091,-122.8899168,Mahek Chaat House
421,49.127319,-122.845123,Denny's
422,49.1155805,-122.6812602,Baik Mi Korean Restaurant
423,49.1155327,-122.6815486,Phở 99 Vietnamese Noodle House
424,49.1144597,-122.680159,The Mongolie Grill
425,49.2826171,-123.125193,Le Crocrodile
426,49.1206336,-122.890725,Brown's Socialhouse
427,49.2420515,-122.760669,Iron Bowl Japanese
428,49.2996655,-123.1338483,Stanley's Bar and Grill
429,49.2719391,-123.0694126,Harbour Oyster + Bar
430,49.2718891,-123.0694101,Sake Maki Sushi
431,49.2602339,-123.012685,Sadies Lunchworks
432,49.2808318,-123.045512,Phở Don
433,49.2808315,-123.045785,Blowfish Sushi
434,49.2599467,-123.0700878,Naruto Sushi
435,49.22987,-123.0019032,Isami Sushi
436,49.0613388,-122.3800095,Vi La Palace
437,49.0621643,-122.3806878,Rendezvous Restaurant Mt Lehman
438,49.0616856,-122.3800125,Hana Sushi Japanese Restaurant
439,49.0620501,-122.3809,Curry Time Indian Cuisine
440,49.0659656,-122.3781957,Parmeshar Sweet Shop & Restaurant
441,49.1390234,-122.8895927,Sapphire Bistro
442,49.1322496,-122.892191,Ricky's All Day Grill
443,49.1917591,-123.1203155,Shanghai Wonderful Restaurant
444,49.27993,-123.127571,Burgoo
445,49.2766247,-123.119889,Pierre's
446,49.2299272,-122.6889877,KJ Enjoy Garden Restaurant
447,49.2207535,-122.5974758,Paliotti's
448,49.2203218,-122.5970981,Hot Pho Restaurant
449,49.2183727,-122.6538329,Browns Socialhouse
450,49.219047,-122.6482392,Socrates Grill
451,49.219752,-122.6483998,Sushi Umibe
452,49.218382,-122.6461155,The Mexican Gourmet
453,49.218154,-122.643678,White Spot
454,49.217648,-122.644441,Ocean Village Seafood Restaurant
455,49.2176042,-122.643971,Kuroneko Japanese Bistro
456,49.2173385,-122.6212151,Home Restaurant
457,49.2169895,-122.6022716,Kitchen on the Ridge
458,49.219839,-122.6019018,Chameleon
459,49.2203878,-122.6019021,Kocodak Korean Fried Chicken & Bar
460,49.2203799,-122.6024127,Silver House Restaurant
461,49.2203841,-122.6068322,La Trattoria
462,49.2207572,-122.590919,SUSHI SAMA
463,49.2392457,-123.0527928,Andamiro Korean Bistro
464,49.2286986,-122.999749,Colour See See Shanghainese Cuisine
465,49.2287918,-123.000016,Yaguchiya Ramen
466,49.1980237,-122.9785339,Pizza Hut
467,49.275651,-123.201754,The Galley Restaurant and Grill
468,49.2193318,-123.149371,Land & Sea Restaurant & Bar
469,49.0476721,-122.7849502,Kababji
470,49.226799,-122.993756,Chongqing Restaurant
471,49.2884539,-123.139806,Legendary Noodle House
472,49.2861746,-123.1169768,The Butcher & Bullock
473,49.0572877,-122.2729713,Kira Sushi
474,49.0573488,-122.2733916,The Rendezvous Restaurant
475,49.2818966,-123.124145,Chef Hung Taiwanese Beef Noodle
476,49.2818326,-123.124023,Pacifico Pizzeria & Ristorante
477,49.2217964,-122.9309468,Aria Kabab House & Grill
478,49.2214255,-122.930951,Cayenne Bistro and Grill
479,49.2226831,-122.9325337,Agra Sweets & Restaurant
480,49.2802018,-123.13067,Kadoya
481,49.288583,-123.140079,Mr. B's Food and Drink
482,49.2568861,-123.121518,Hachibei
483,49.233419,-123.034894,
484,49.2336484,-123.03531,Happy Day Cafe
485,49.2344888,-123.036188,Beijiang Restaurant
486,49.2340779,-123.035371,The Captain's Boil
487,49.2340261,-123.0352637,Congee Noodle King
488,49.2335852,-123.034401,395 Baking House Pro
489,49.2371809,-123.0326238,Japanese Bistro Kamome
490,49.2378821,-123.032557,Chicko Chicken
491,49.3130233,-123.077144,Winston
492,49.1991209,-122.7773056,Doma Sushi
493,49.1992145,-122.7773115,DDDN Pan Pizza
494,49.1158502,-122.6794403,Luxe Chinese Seafood Restaurant
495,49.1390015,-122.8890829,Apna Chaat House
496,49.2643906,-123.0699559,Poke Five
497,49.264119,-123.022777,Ricky's Country Restaurant
498,49.2620586,-123.0333402,Dae-Ji Cutlet House
499,49.2635577,-123.1126736,La Taqueria Pinche Taco Shop
500,49.3099998,-123.0820407,The Fried Chicken Works Korean
501,49.312149,-123.0770359,Maru Korean Bistro
502,49.3118497,-123.0764847,South Castle Korean Restaurant
503,49.2831459,-123.103036,Rodney's Oyster House
504,49.2888741,-123.13173,Sura Korean
505,49.2898464,-123.133158,Hongdae Pocha Korean
506,49.2622969,-123.0958568,Carp
507,49.1626593,-122.891796,
508,49.2626656,-123.0894187,Ba Le Deli & Bakery
509,49.2115091,-122.9352254,Ole Ole Mexican Deli
510,49.1332902,-122.3302497,Fog on the River
511,49.213312,-122.919797,Mongo Bongo Mongolian Grill
512,49.2132216,-122.9199596,Co Chau Restaurant
513,49.2014831,-122.913452,AKD KITCHEN Soup + Goods
514,49.0946481,-122.4914348,Safari Grill
515,49.0498295,-122.3350484,Thong La's Restaurant
516,49.2299673,-123.0908832,Good Choice Restaurant
517,49.1043473,-122.6505345,RIB & CHICKEN
518,49.1037077,-122.6502847,Maru Japanese Restaurant
519,49.1035063,-122.6516175,Pho 777 Vietnamese Restaurant
520,49.1034035,-122.6538181,Venetis Restaurant
521,49.1084731,-122.6670714,Naka Bistro Lao & Thai Cuisine
522,49.1827333,-123.1355343,Hao's Lamb Restaurant
523,49.1832711,-123.1361756,Northern Style Chinese Restaurant
524,49.2582234,-122.9554552,Gaya Sushi
525,49.2235225,-122.983696,Liuyishou Hotpot
526,49.2234245,-122.9860601,Sugar Lab
527,49.2393211,-122.963657,Chettinad Dosa Palace
528,49.239247,-122.963227,Deer Lake Wonton House
529,49.1339419,-122.839023,Planet India Restaurant
530,49.2622489,-123.0447425,Basil Garden Pho
531,49.2874551,-123.128933,Ramen Danbo
532,49.2682379,-123.1860064,Yuji's from Japan
533,49.2826779,-123.1060827,Tuc Craft Kitchen
534,49.2879187,-123.140435,Zeitoon
535,49.25603,-123.114887,Dutch Wooden Shoe Cafe
536,49.2792456,-123.1168603,Ebi-Ten
537,49.0473214,-122.2682839,Choice Pizza 2 for 1
538,49.1961883,-123.126223,Sea Harbour Seafood Restaurant
539,49.2801081,-123.125117,Gyu-Kaku
540,49.2777207,-123.126777,Rorimomo
541,49.2684763,-123.1671204,The Oakwood
542,49.2847964,-123.124306,Sushi Yan
543,49.2838527,-123.1143645,Chihuahua's
544,49.1721471,-123.1335978,Tokyo Joe's
545,49.325981,-123.142336,Cactus Club Cafe
546,49.1712762,-123.1348734,Oriental Rice Noodle
547,49.3122034,-123.0789593,Buddha-full
548,49.0326388,-122.801449,White Spot
549,49.1030203,-122.652826,Ban Chok Dee
550,49.1022122,-122.660072,Langley Vietnamese Cuisine
551,49.1995895,-122.9125081,The Boathouse
552,49.2643226,-123.174195,Kitstaya Sushi
553,49.2643441,-123.1748179,
554,49.2642652,-123.171801,Pokay
555,49.2642636,-123.1717479,Harvest Delicatessen
556,49.2642602,-123.1716944,TeraVBurger
557,49.2293878,-123.0904982,Pizza Hut
558,49.0464428,-122.2872366,Noodlebox
559,49.0464045,-122.2872963,Meat & Bread Test Kitchen
560,49.2316825,-123.0297556,Royal Momo Palace
561,49.2813362,-123.0625217,Koko Japanese Restaurant
562,49.2809152,-123.06254,Sun Yee Cafe Restaurant
563,49.2810313,-123.058545,The Indian Chefs Cuisine
564,49.2810364,-123.059125,Chomp Vegan Eatery
565,49.2866651,-123.11834,JOEY Bentall One
566,49.2801028,-123.1181207,Bentoya
567,49.2809398,-123.1246266,Shizen Ya
568,49.282596,-123.1119502,Osteria Autostrada
569,49.2820156,-123.1229819,Hubbub
570,49.2807667,-123.1248876,Sushi Maki
571,49.2917752,-123.138367,Robba da Matti
572,49.2360088,-123.1556952,China Lan Lanzhou Beef Noodle
573,49.2376572,-123.1556393,White Spot
574,49.2374525,-123.1556357,Bufala
575,49.2377976,-123.1556386,Sushi King House
576,49.2346965,-123.156438,ZUBU Ramen
577,49.2347896,-123.1617089,Minerva
578,49.2343745,-123.1615078,Jin Jiang Japanese Restaurant
579,49.2345339,-123.161902,Lok's Chinese Restaurant
580,49.2362672,-123.1851138,Moki's Pizza
581,49.2577128,-123.1857358,Dunbar Sushi
582,49.2644862,-123.1845642,Taste of Thai
583,49.2636616,-123.187105,Rajio Japanese Public House
584,49.2639217,-123.206365,Ginger & Chili
585,49.263668,-123.2067358,Takumi Japanese Restaurant
586,49.2636746,-123.2071292,Burgoo
587,49.2634725,-123.2089582,The Kitchen
588,49.2637428,-123.2104101,Pizza Hut
589,49.2637147,-123.2108476,The Diner
590,49.2639253,-123.2073519,DoDo Sushi
591,49.250421,-123.034043,Lucky Plus Restaurant
592,49.2545986,-123.022522,Takara Sushi
593,49.2544973,-123.0220975,Big Star Sandwich Co.
594,49.2548905,-123.0206192,Nu Sushi Bar
595,49.2549229,-123.0195594,James Street Cafe & Grill
596,49.2562863,-123.023274,Burnaby Palace Restaurant
597,49.262033,-123.0296665,Happy Valley Dim Sum Seafood Restaurant
598,49.2643167,-123.0106665,Joy Sushi
599,49.2657453,-123.0055504,Ricky's Cafe
600,49.3073274,-122.9539014,Cove Sushi
601,49.3069369,-122.9535048,Nektar's Pizza and Greek food
602,49.3072733,-122.9539015,The Village Table
603,49.1626472,-122.891028,Tandoori Flame
604,49.2918102,-123.135189,Tetsu Sushi Bar
605,49.2810223,-123.118995,Meat & Bread
606,49.280963,-123.118915,Aladdin Cafe
607,49.2616326,-123.0700247,Commercial Sushi
608,49.2800589,-123.1086084,Pizzeria Ludica
609,49.2796305,-123.10861,Hai Phong
610,49.2808958,-123.1078452,Tsuki Sushi Bar
611,49.2807869,-123.1078361,Taishoken
612,49.2810728,-123.118583,Ryuu
613,49.2726305,-123.148677,Moltan
614,49.2726398,-123.149178,Charqui Grill
615,49.2724816,-123.1545482,Thai Basil
616,49.2779185,-122.912361,Pho 99
617,49.2866613,-123.1283005,Juewei
618,49.2250996,-123.1014359,All India Sweets & Restaurant
619,49.2248105,-123.1018704,Himalaya Restaurant
620,49.1819442,-123.135778,Shun Feng Seafood Restaurant
621,49.0213607,-122.8055126,Five
622,49.2710268,-123.1466969,Blue Sky Japanese Bistro Ltd
623,49.2744509,-122.7900234,We Grill Korean Eatery
624,49.2739434,-122.788164,Phở Huy Restaurant
625,49.2741237,-122.7880303,Ramen Bella Poco
626,49.2846571,-123.1232487,Eh! Restaurant
627,49.3794887,-123.3353803,Barcelona Tapas & Wine Bar
628,49.2802827,-123.1012535,New Town Bakery & Restaurant
629,49.2636452,-123.1534206,Gyo Para -Gyoza and Ramen Paradise
630,49.2641802,-123.15747,Casereccio Foods
631,49.2637118,-123.1546883,Yagoto Sushi Dining
632,49.2628286,-123.0569216,Phoenix Garden
633,49.3267728,-123.137509,The Keg
634,49.3101746,-123.0828871,Little Tokyo Sushi
635,49.1710599,-122.946625,Twin Bridges Restaurant
636,49.1024107,-122.6599622,Chef's Kitchen
637,49.1039972,-122.6614314,Silver Dragon Restaurant
638,49.1044687,-122.6630486,Jim's Pizzeria
639,49.1052988,-122.6586384,Masala India Bistro
640,49.3386096,-123.10218,Cantina Norte
641,49.1958534,-123.176981,Freshii
642,49.2769143,-123.1307852,RV's Butter Kitchen
643,49.0481021,-122.3426806,Jasmine Garden Seafood Restaurant
644,49.2778121,-122.7946053,C - Lovers
645,49.2465842,-123.1010258,Chickpea Restaurant
646,49.2861606,-123.124206,The Keg
647,49.2890798,-123.1326293,Kosoo
648,49.2800621,-122.828522,Goen Sushi
649,49.2784435,-123.114328,Black Rice Izakaya
650,49.2883458,-123.140457,Fatburger
651,49.2885437,-123.140147,Akira Sushi
652,49.2320583,-123.026079,Icy Bar
653,49.1589776,-122.780884,Diamond sweets & restaurant
654,49.1585249,-122.7810967,Full Ramen
655,49.2302467,-123.0909304,Angel Cafe
656,49.2252584,-123.090384,Sushi & Co
657,49.2248465,-123.0909786,Shoom Restaurant
658,49.2246588,-123.0909787,Yu Xiang Yuan Restaurant
659,49.2262041,-123.090544,Samurai Sushi on Fraser
660,49.227687,-123.090491,Deer Garden Signatures
661,49.2279638,-123.090488,Ho Yuen Kee Restaurant
662,49.2411997,-123.1017066,Sushi Hub
663,49.2434136,-123.1011851,Pho Tan Restaurant
664,49.244604,-123.101102,MeetRice Noodle
665,49.2458734,-123.1014712,Dream Sushi
666,49.2570082,-123.1148128,Nabebugyo Hot Pot Cuisine
667,49.2507344,-123.0768216,Sun Bo Kong Vegetarian Restaurant
668,49.2511829,-123.0784268,Grace of India
669,49.2511789,-123.0789198,Hai Phong Vietnamese Restaurant
670,49.2516531,-123.0796219,Hoy's Wonton House
671,49.2573892,-123.0909119,Osteria Savio Volpe
672,49.2574262,-123.0910754,Los Cuervos Taqueria & Cantina
673,49.25731,-123.0900346,The Lion's Den Cafe
674,49.1624504,-122.7906787,Assinis
675,49.2370452,-123.0656861,Sandy La Chinese Restaurant
676,49.2412795,-123.101696,Au Petit Café
677,49.2361234,-123.064932,Golden Swan Restaurant
678,49.238342,-123.065174,Hủ Tiếu Hồng Phát
679,49.2338441,-123.0657751,Shima-Ya
680,49.2579769,-123.101392,Kaori Izakaya
681,49.2503562,-123.1007457,Sun Sui Wah Seafood Restaurant
682,49.2532802,-122.8983104,Green Leaf Sushi Cafe
683,49.2525622,-122.898141,Red Robin
684,49.2764454,-123.119515,Tacofino
685,49.2763998,-123.119601,West Oak
686,49.2759204,-123.120304,Nightshade
687,49.126467,-122.8451799,Pizza Factory
688,49.278575,-123.114112,Fanny Bay Oyster Bar
689,49.2762885,-123.119756,The Greek by Anatoli
690,49.276436,-123.1190454,Moltaqa Moroccan Restaurant
691,49.2575621,-123.1148455,Vij's
692,49.2781965,-123.1133537,Frankie’s Italian Kitchen & Bar
693,49.2762561,-123.1155406,Pho Khanh
694,49.1374366,-122.2869008,The BlackBerry Kitchen
695,49.1721,-123.132726,Once More Restaurant
696,49.2838437,-123.105367,The Old Spaghetti Factory
697,49.1874737,-123.1239547,Pho Han Restaurant
698,49.1872471,-123.1242174,Kongee Dinesty
699,49.1546847,-123.125784,Kiriri Japanese Cuisine & Sushi Bar
700,49.1549178,-123.1257772,Master Hung BBQ & Won Ton
701,49.1921075,-122.8242105,Zugba Flame Grilled Chicken
702,49.2696579,-123.1029057,Tractor
703,49.2701699,-123.0568935,Song Huong
704,49.177673,-123.121757,Ajishou Japanese Cuisine
705,49.2630575,-123.1164431,Yolks
706,49.1934619,-122.8457041,Rickshaw Chinese Food
707,49.1865512,-122.847648,Neptune Seafood Restaurant
708,49.2732782,-123.119664,Provence Marinaside
709,49.2566726,-122.7472741,Freshii
710,49.255495,-122.7466809,White Spot
711,49.2139765,-122.9215715,Sushi Well
712,49.2127087,-122.919996,Highlight by Re-Up BBQ
713,49.2128225,-122.920142,TonTon Sushi
714,49.2106207,-123.0925992,New Fishport Seafood Bistro
715,49.1720079,-122.890694,Baba Sweets & Shivalik Restaurant
716,49.1718164,-122.8906903,Jagga Sweets
717,49.1743983,-122.8894768,Asian Spice
718,49.1769893,-122.8683199,Mezbaan Indian & Indo Chinese Food
719,49.1917865,-122.8438,Bozzini's
720,49.1918267,-122.8442801,
721,49.1912487,-122.8073648,The Moose
722,49.2308636,-122.906499,Nam Vegan Express
723,49.2687655,-123.1853463,La Quercia
724,49.2268102,-123.0040761,Boston Pizza
725,49.226354,-123.003963,Neptune Noodle Bar
726,49.226408,-123.0036228,Freshii
727,49.2262972,-123.0040162,Neptune Seafood Restaurant
728,49.2253804,-122.9997103,The Boss Restaurant
729,49.155121,-123.1248975,Royal Seafood Restaurant
730,49.1551956,-123.12462,DAAN Korean Cuisine
731,49.2509254,-123.077162,Dosa Factory
732,49.1856947,-122.801637,Nando's
733,49.2756158,-123.1151739,Fresh Japanese Restaurant
734,49.2780055,-122.912328,Biercraft
735,49.2369689,-122.870433,That Place 4 Pasta & Pizza
736,49.021388,-122.8055958,Dolce Gelato
737,49.2831953,-123.0949154,The MacKenzie Room
738,49.1838883,-123.0941637,Continental Seafood Restaurant
739,49.183931,-123.094599,Kiyo Sushi
740,49.1834585,-123.092175,Lotus
741,49.1838695,-123.0932881,Tandoori Kona
742,49.2749478,-123.1217422,MeeT in Yaletown
743,49.1155779,-122.6794924,An Indian Affair
744,49.0562149,-122.380711,Denny's
745,49.2492671,-123.074497,Ashiana Tandoori
746,49.1242783,-123.183214,Cimona
747,49.2647912,-123.2280363,Westward Ho
748,49.2631303,-123.2213367,Snack shack
749,49.2540725,-123.2359295,Virtuous Pie
750,49.2694998,-123.107701,The Flying Pig
751,49.1043112,-122.734369,Sushi King
752,49.321953,-123.0728213,Alberello Pizzeria
753,49.2226452,-122.9823108,On On Wonton House
754,49.2265557,-122.99322,Mama Rich
755,49.2265741,-122.9930695,Chongqing Qing Qin-Ma Hot Pot Restaurant
756,49.2282144,-122.9982869,Ha Cafe
757,49.2495635,-123.1012512,The Acorn
758,49.2499187,-123.1012388,The Arbor
759,49.1123933,-122.6772604,Wings
760,49.2681235,-123.1017035,Nuba
761,49.0458177,-122.797258,Sushi Mori Japanese Restaurant
762,49.1633285,-123.1363369,Memory Corner
763,49.172236,-123.1358351,Dinesty Dumpling House
764,49.2327946,-123.034803,Wang's Shanghai Cuisine
765,49.2243084,-122.9854875,Jin Jiang Shanghai Restaurant
766,49.2737081,-123.123474,Ki Isu Japanese Restaurant
767,49.2737767,-123.123226,Little Saigon Yaletown
768,49.2873076,-123.128401,Koyuki Sapporo Ramen
769,49.2101551,-123.1161572,Pink Elephant Thai Restaurant
770,49.2615373,-123.0696114,Daddy's Kitchen
771,49.2698716,-123.0439878,Rib & Chicken
772,49.1937865,-123.133643,Richmond Night Market
773,49.2269075,-123.0905378,Pho Hong Restaurant
774,49.249452,-123.0898806,Nammos Estiatorio
775,49.2498662,-123.0898679,Good Sushi
776,49.2497616,-123.0898772,Penang Bistro
777,49.249653,-123.089883,Bonjour Vietnam Bistro
778,49.2477372,-123.090366,Saigon Taste Vietnamese Restaurant
779,49.218813,-122.9645496,Deer Garden Signatures
780,49.2187448,-122.9645498,Pearl Hot Pot
781,49.2186513,-122.9643198,Pho Century Fine Vietnamese Cuisine
782,49.2763822,-122.857784,Golphis Steak & Lobster
783,49.1996433,-122.8115581,Sushi Zen
784,49.1981845,-122.8119782,Pho Tau Bay
785,49.1990607,-122.8134494,Cabizerra Bistro
786,49.1990766,-122.8159015,Song Huong Vietnamese Restaurant
787,49.2812088,-123.131973,Gurkha Himalayan Kitchen
788,49.2820205,-123.120445,Bistro Verde
789,49.2820098,-123.1080325,Catch 122
790,49.2819933,-123.107973,Wildebeest
791,49.2815272,-123.0660535,Pelican Seafood Restaurant
792,49.2813515,-123.060021,Van Dragon Seafood Restaurant
793,49.2814517,-123.0638208,Volcano Sushi & Grill
794,49.2830665,-123.1126225,Ha Long Bay
795,49.2841885,-123.1139212,Caveman Cafe
796,49.2840406,-123.12216,Salam Bombay
797,49.0548595,-122.3592426,Bento Express
798,49.0551068,-122.3592631,Lighthouse Fresh and Tasty
799,49.2531282,-123.0831059,Dai Tung
800,49.2382172,-123.032139,Milk & Sugar BBQ Bar
801,49.2810135,-123.0563034,Thailicious
802,49.3057089,-123.017807,Buddha-full
803,49.2349593,-123.0371824,Jambo Grill
804,49.1919591,-122.798649,Fresh Restaurant & Lounge
805,49.2892247,-123.1322819,Saku
806,49.2786129,-123.1160175,Original Joe's
807,49.2786063,-123.116857,Patisserie Fur Elise
808,49.1757579,-122.801653,Greek Islands Restaurant
809,49.0315176,-122.8016515,Sapporo Kitchen
810,49.0348989,-122.8008819,Lee Yuen Seafood Restaurant
811,49.0375485,-122.8009329,Boston Pizza
812,49.0463697,-122.801681,IHOP
813,49.0450198,-122.7785848,Liberty Kitchen
814,49.0452303,-122.7787252,Browns Socialhouse
815,49.0460316,-122.7823106,My Shanti
816,49.0465479,-122.7841224,Sammy J's Grill & Bar
817,49.0472452,-122.7839835,Noodlebox
818,49.047517,-122.784328,Sushi Castle
819,49.0479301,-122.7848975,The Chopped Leaf
820,49.0473527,-122.7845687,Menzou Ramen & Bubble Tea
821,49.0451844,-122.7774453,Woo Korean BBQ
822,49.044654,-122.7772023,Big Star Sandwich Co.
823,49.0446042,-122.776713,Afghan Kitchen
824,49.0443228,-122.7767211,Chutneys Indian Grill
825,49.0452033,-122.7781947,Freshii
826,49.0431819,-122.7804231,Wok Box
827,49.0421682,-122.7796269,Kami Sushi
828,49.0450831,-122.7910447,Bucky's West Coast Pizzeria
829,49.0292406,-122.8000061,Dining Wok Shanghai Restaurant
830,49.0292578,-122.8005183,Pho 777 Vietnamese Restaurant
831,49.0291017,-122.8010046,Café 8
832,49.0289361,-122.8010181,Mala Factory
833,49.0284562,-122.7994974,Kappa Japanese Restaurant
834,49.030607,-122.7993445,Punje Spice Indian Restaurant
835,49.0307761,-122.7993521,Silver Dragon Restaurant
836,49.2741987,-123.0697248,Thai Basil
837,49.2720213,-123.0698212,Cafe Phin Phap
838,49.2717699,-123.0697926,Donair Town
839,49.2718556,-123.069791,Soly's Pizza
840,49.2718128,-123.069791,Viet Family Restaurant
841,49.2717271,-123.0697935,Ginger Sushi
842,49.2716414,-123.0697951,Tatsu Japanese Bistro
843,49.2716842,-123.0697943,Tandoori Palace
844,49.1806432,-123.1600445,Sushi Cafe
845,49.2684715,-123.1853203,Irori Sushi
846,49.26844,-123.1821901,Double DD Pizza
847,49.2682499,-123.1690466,Linh Café
848,49.2682482,-123.1687786,Raviolino
849,49.2682325,-123.1667687,Healthy Noodle House
850,49.2579533,-123.1678222,Zest Japanese Cuisine
851,49.2487723,-123.1853877,Stong's Replenish Cafe
852,49.2483679,-123.1850471,Wild Sushi
853,49.2465989,-123.1854074,Cosy Inn Cafe
854,49.2462956,-123.1853981,The Dunbar Public House
855,49.2454947,-123.1854457,The Cheshire Cheese Inn
856,49.2469916,-123.1850629,Sushi Inn
857,49.2469076,-123.1850629,Mexicali
858,49.253994,-123.2353546,Togo Sushi
859,49.2617269,-123.2555515,Point Grill
860,49.2627678,-123.0563725,Yook Korean Grilled BBQ and Bistro
861,49.2733583,-123.132748,Chang'an
862,49.2843293,-123.0955163,Belgard Kitchen
863,49.2842123,-123.0977153,Ask for Luigi
864,49.2852511,-123.1186391,Rue 909 Sushi
865,49.2755415,-123.0996107,Bodega
866,49.275519,-123.099626,Campagnolo
867,49.276004,-123.0996219,Torafuku
868,49.0371898,-122.2258083,White Spot Abbotsford (Whatcom)
869,49.2813956,-123.133708,Sushi Bar Maumi
870,49.2849273,-123.124611,Joe Fortes
871,49.2857079,-123.126991,Jang Mo Jib
872,49.2829671,-123.1105765,La Taqueria
873,49.2291967,-123.001075,Green Basil Thai
874,49.2608862,-123.1007632,Lucy's Eastside Diner
875,49.1551317,-122.9135908,Pho Stanley
876,49.1550607,-122.9116031,Minori Sushi
877,49.1548416,-122.911903,Salty's Fish & Chips
878,49.3260027,-123.0724817,Pho98
879,49.233616,-123.0344604,Sushi Aji
880,49.2318915,-123.02888,Happy Tree House BBQ
881,49.2683767,-123.0444762,Jiro Sushi & Ramen
882,49.3139854,-123.0790093,Vaades
883,49.3139495,-123.07891,Busan Daeji Gukbap Restaurant
884,49.035729,-122.2921646,"Browns Socialhouse McCallum, Abbotsford"
885,49.0356436,-122.2920212,Little Saigon
886,49.1238349,-123.185814,Bistro One Half
887,49.2922784,-123.133942,Tsukiya
888,49.2190996,-122.9671782,Sushi Garden
889,49.2296274,-122.8930656,Gino's Restaurant
890,49.2306684,-122.8929259,Sushi Heaven
891,49.243914,-122.8908022,
892,49.2865571,-123.140981,Mumu Kitchen
893,49.105767,-122.739572,Vera's Burger Shack
894,49.2799326,-123.1302522,Banana Leaf
895,49.1037213,-122.7281926,Ricky's
896,49.277574,-123.13185,Osaka Sushi
897,49.2828492,-123.1158635,Gotham
898,49.264335,-122.7665477,Rainbow Butterfly
899,49.2782179,-122.8119643,Rio Brazilian Steak House
900,49.2785669,-122.818866,Pasargad Restaurant
901,49.2324976,-123.0244448,Michi Craft Kitchen
902,49.2319862,-123.0274025,Max's Restaurant
903,49.2318116,-123.0303064,Cho Sun Korean BBQ
904,49.2317538,-123.0281419,Love for Pho
905,49.2317853,-123.028614,Todak Todak Restaurant
906,49.2331163,-123.0138019,Basil Pasta Bar
907,49.2330399,-123.019254,Minoas Greek Taverna
908,49.1917274,-123.080854,White Spot
909,49.1917063,-123.1096164,Dai Jang Kum
910,49.1345138,-122.3035097,U & I Thai
911,49.1342504,-122.3032426,Eleni's Greek Restaurant
912,49.1345119,-122.3040715,Akaska
913,49.3556326,-123.105903,Sushi Mori
914,49.2457826,-122.8937983,North Road Sushi & Kitchen
915,49.2450908,-122.8931682,Jong Ga
916,49.2636388,-123.126978,Privé
917,49.2635399,-123.1238962,Legendary Noodle
918,49.2635854,-123.128061,John 3:16 Malaysian Delights
919,49.2798806,-123.117809,Assembli
920,49.266479,-123.1386694,Cheesecake etc.
921,49.2850132,-123.117913,La Taqueria
922,49.2771741,-123.116345,Smithe Salad
923,49.3125664,-123.0822132,Boston Pizza
924,49.3124327,-123.08221,Freshii
925,49.2504667,-123.0417872,Ragazzi Pizza Co.
926,49.0905502,-123.085609,Britannia Brewing Ladner
927,49.0912773,-123.086394,Go-Go Sushi
928,49.2007846,-122.9161351,Chronic Tacos
929,49.2019939,-122.912085,Ki Sushi
930,49.2149746,-122.9879015,Makoto Sushi
931,49.265511,-122.9784549,Garlic and Chili
932,49.3217244,-123.0725862,Krua Thai
933,49.2802492,-122.965469,North Burnaby Wonton House
934,49.2649661,-122.9428884,Eagle Creek Bar & Grill
935,49.2644099,-122.9818823,Sushimoto
936,49.2778406,-122.911879,Donair Town
937,49.2778918,-122.9121958,Bamboo Garden
938,49.2778065,-122.9116679,Plum Garden
939,49.2789099,-122.915588,Mackenzie Cafe
940,49.2781018,-122.912178,Japarrito
941,49.2780059,-122.911585,Gawon Express
942,49.2778748,-122.9120902,Bun and Me
943,49.2242006,-122.999661,ZUBU Ramen
944,49.2486124,-123.1252499,Mandarin Hong Kong Cafe
945,49.248523,-123.1254837,Kim Express
946,49.2485238,-123.1255358,City 1 cafe
947,49.2873576,-123.1414189,Vonns
948,49.3221422,-123.0986576,Khaghan Restaurant
949,49.3231981,-123.1011244,Ming’s Garden
950,49.3812509,-123.0783909,Rusty Rail Outdoor B.B.Q. & Beer Garden
951,49.0491203,-122.2597934,ebisu sushi
952,49.2486397,-123.100827,Helen's Grill
953,49.2766598,-123.1256875,Manoush’eh
954,49.1320149,-122.3222546,Mission Hills Sushi
955,49.263541,-123.1451,Happy Lamb Hot Pot
956,49.1703574,-123.1815541,Hananoki Japanese Restaurant
957,49.1709535,-123.182439,Pizza Hut
958,49.1700042,-123.1818523,Nozomi Sushi
959,49.1705269,-123.1387041,Shanghai River
960,49.1549186,-123.1581366,LA Grill
961,49.2786686,-123.12829,Sushi Mugen
962,49.1195059,-122.6916726,Pizza Knight
963,49.3200966,-123.107641,The Workshop Vegetarian Café
964,49.1808976,-123.13501,Cloud 9 Delicacy
965,49.1776139,-123.1277247,Soup Master
966,49.1776209,-123.127944,Qian Dao Hotpot
967,49.1778915,-123.1276284,Spice World
968,49.285049,-123.0621868,The Dundas
969,49.1363241,-122.8900259,GNJ Vegetarian Bistro
970,49.0406647,-122.2198854,HIKO SUSHI
971,49.0373851,-122.2303484,Maru Sushi MK
972,49.2828886,-123.12373,Boulevard Kitchen & Oyster Bar
973,49.2841806,-123.114361,Gyoza Bar
974,49.288481,-123.139744,Gillaneh Restaurant
975,49.2206301,-122.9772656,The One
976,49.218898,-122.968487,Vassillis Souvlaki Greek Taverna
977,49.2519331,-123.0803514,Kingsway Deli
978,49.2683379,-123.069464,Cannibal Café
979,49.1829275,-123.0918663,L.A. Chicken
980,49.2809572,-123.0612347,Vietnam House
981,49.2775279,-122.8078057,Pasta Polo
982,49.2667088,-123.004665,Sooda Korean BBQ
983,49.1330296,-123.0962758,Kisha Poppo Japanese Resturant
984,49.0488696,-122.3040005,O'Neills Home Cooking
985,49.2823168,-123.1239578,Sala Thai
986,49.2918539,-123.1346228,Tonkatsu Ramen Tsukiya
987,49.2198038,-122.970509,Lee Garden Seafood Restaurant
988,49.2339814,-122.8626888,Ricky's
989,49.1066722,-122.6617669,Sehmi
990,49.278102,-122.9099445,The Chopped Leaf
991,49.2781344,-122.9101527,Togo Sushi
992,49.2781668,-122.910361,Chef Hung
993,49.2190964,-122.5938336,Big Feast Bistro
994,49.2345961,-123.1845122,Red Tuna
995,49.2344723,-123.1595022,Irashai Sushi
996,49.2345042,-123.157945,ASA Sushi
997,49.2347568,-123.1587655,Orange Corner
998,49.2141314,-122.9217996,Wafflehouse Family Restaurant
999,49.2130192,-122.9199518,Zaaki Cuisine
1000,49.2048833,-122.910155,Bubble World Restaurant
1001,49.2572249,-123.1853564,La Notte
1002,49.210637,-123.092205,Pho Zen Vietnamese Cuisine
1003,49.2187017,-122.960808,DooBoo
1004,49.2230985,-122.9821688,Denny's
1005,49.2229075,-122.9815414,Joyful Seafood Restaurant
1006,49.2204967,-122.9757219,Triple O's
1007,49.2212878,-122.9765543,Pho Hong
1008,49.2236028,-122.9839649,Phơ Boi
1009,49.2257138,-122.99048,Miss Fu In Cheng Du
1010,49.1343274,-122.3274622,Sushi Te
1011,49.134,-122.3271146,Baba's Ukrainian Kitchen & Coffee House
1012,49.1340293,-122.3240096,Embers BBQ House
1013,49.1336256,-122.3205161,Hana Sushi
1014,49.133223,-122.3205257,Brownies Chicken & Seafood
1015,49.2892662,-123.126936,Kiku Sushi Restaurant
1016,49.2196081,-122.6015841,Jim's Pizza
1017,49.2201669,-122.5999451,Sushi Eben-Ezer
1018,49.2751036,-122.790977,Hon's
1019,49.27778,-122.7946533,
1020,49.2706233,-123.069415,Hanai
1021,49.2722284,-123.1551219,Nook
1022,49.2710538,-123.1551909,Lucky Taco
1023,49.2361435,-123.0414313,The Sea House Fish & Chips
1024,49.2362425,-123.041736,Chili Pepper House
1025,49.3365713,-123.0400751,Yama Sushi
1026,49.1194981,-122.6647319,Fat Burger
1027,49.1194928,-122.6654561,Ricky's All Day Grill
1028,49.0567827,-122.8007447,Nando's
1029,49.1266442,-123.1818811,Damien's Belgian Waffles
1030,49.1637059,-122.6604812,Denny's
1031,49.2615783,-123.1380707,Bombay Kitchen
1032,49.2634415,-123.1399643,Liquids + Solids
1033,49.2682306,-123.1517425,Sushi Nova
1034,49.2682348,-123.1518413,Nelly's Grill
1035,49.2679785,-123.1514269,Their There
1036,49.2682334,-123.1515788,TurF
1037,49.2738934,-123.132775,Ancora
1038,49.232414,-123.032009,K & H Seafood Restaurant
1039,49.2328569,-123.0330812,Li's China Grill
1040,49.2329098,-123.033193,Bubble World
1041,49.232883,-123.0331425,Fortune Lamb Dining
1042,49.1060882,-122.6560645,The Buffet
1043,49.1058814,-122.6570413,Atlas Steak + Fish
1044,49.3148698,-123.1010855,Yangmara
1045,49.3210825,-123.0956321,Cora
1046,49.2877451,-123.1206603,Le Petit Crêpe
1047,49.2874987,-123.123306,Tableau
1048,49.2732428,-123.2031796,N.S.C.S. Discovery Café
1049,49.2873492,-123.1236303,Domo Sushi
1050,49.2776864,-123.116068,Grounds for Appeal
1051,49.225037,-123.0659194,Nishiki Sushi Bar
1052,49.2613904,-123.1532615,Indishspensable
1053,49.2621248,-123.1532374,Gramercy Grill
1054,49.2623651,-123.1532375,Trees Organic
1055,49.2629899,-123.1527502,Napoletana
1056,49.2631147,-123.1182125,Sushi Dragon
1057,49.2630798,-123.116063,Peaceful Restaurant
1058,49.2805364,-123.1009549,DD Mau Chinatown
1059,49.1888372,-122.8027337,Migoto sushi
1060,49.1892575,-122.8026063,Freshii
1061,49.1885728,-122.7965763,Sushi Train
1062,49.2591437,-123.0694945,Gojo Little Africa Cafe
1063,49.2629504,-123.097461,Donky Chicken
1064,49.263431,-123.1365721,Masa Japanese Restaurant
1065,49.1713632,-123.1356091,Specialty Chicken & Wonton House
1066,49.1713722,-123.1350086,Top Shanghai Cuisine Restaurant
1067,49.1723518,-123.1324365,Home BBQ
1068,49.1723521,-123.133216,Su Hang Restaurant
1069,49.1026558,-122.7303622,Rusty's Pub
1070,49.1039095,-122.734564,Coast & Country Diner
1071,49.0488685,-122.2901519,BRGRS BRGR
1072,49.2800699,-122.969768,White Spot
1073,49.2800457,-122.966568,Cockney Kings Fish & Chips
1074,49.373866,-123.2745596,Pudgie's Pizza & Pasta
1075,49.373832,-123.2746014,Horseshoe Bay Chinese Restaurant
1076,49.2041123,-123.1353971,Cafe de l'Orangerie
1077,49.2655281,-122.9785116,Sushi U
1078,49.2854943,-123.117195,Shogun
1079,49.263849,-123.1421144,Old Beijing Roast Duck
1080,49.2796758,-123.1226907,Colony
1081,49.26428,-123.1722925,Banana Leaf
1082,49.2750892,-123.122758,Cactus Club Cafe
1083,49.2757748,-123.120516,Earls
1084,49.2765618,-123.119369,The Keg
1085,49.2781459,-123.1172381,Lupo
1086,49.2469816,-123.0695856,Shiok Singaporean Cuisine
1087,49.1187987,-122.8899872,Pepperoni Cafe
1088,49.1187699,-122.8892974,Spice of Punjab
1089,49.1687233,-122.5813085,Vy's Pho
1090,49.2751643,-123.1127469,Honey Salt
1091,49.104234,-122.656332,Annora Restaurant
1092,49.1042906,-122.6563311,Sushi Tamaru
1093,49.3251311,-123.1242373,Pho Japolo
1094,49.0895074,-123.079018,Mt. Fuji
1095,49.0891536,-123.0799312,Doon Express
1096,49.1244671,-123.1818625,Yokohama Teppanyaki & Sushi Bar
1097,49.1246171,-123.1816333,Porthole Steveston
1098,49.124414,-123.1846332,G-Men Ramen
1099,49.091413,-123.07892,Maguro Sushi
1100,49.115801,-123.061996,RiverHouse Restaurant & Pub
1101,49.0906097,-123.0802207,Chopped Leaf
1102,49.1118014,-123.0524742,Primerose
1103,49.2684412,-123.1647514,Dark Table
1104,49.2663099,-123.2470453,Tacomio
1105,49.0332823,-122.8008908,Mr. Pei Restaurant
1106,49.2314573,-123.0653667,East Kitchen
1107,49.2881797,-123.1171247,Botanist
1108,49.0548458,-122.3169856,Sushiwa
1109,49.0549958,-122.3182463,JoJo's Fish & Chips Bana Restaurant
1110,49.0547581,-122.3198726,Taste of Bhaia Sweet Shop g Restaurant
1111,49.040246,-122.2690027,S+L Kitchen & Bar
1112,49.2836513,-123.1044431,Monarca
1113,49.2802282,-123.1218827,Cavo Bar+Kitchen
1114,49.2799776,-123.121632,Roxy Burger
1115,49.2876345,-123.1410192,Babylon restaurant kebab
1116,49.1186536,-122.7574909,Sushi Shun
1117,49.2320419,-123.026297,Meet Fan Eatery
1118,49.2834375,-123.10443,Peckinpah
1119,49.280638,-123.131087,Cazba
1120,49.2630215,-123.1383632,Sushi Van
1121,49.2794825,-123.122963,Romano's Pizza
1122,49.2129995,-122.9211009,White Spot
1123,49.2121752,-122.9218505,Hi Dozo Sushi
1124,49.1777093,-123.125377,Dragon Group Seafood Restaurant
1125,49.1774901,-123.1292862,Phở Hòa
1126,49.1774963,-123.1300772,The TRUE'S TEA
1127,49.2058672,-123.0426538,Romers Burger Bar
1128,49.205019,-122.909871,RedBeef Express
1129,49.2050455,-122.9099145,Royal Tandoori
1130,49.2129842,-122.9199062,Mean Poutine
1131,49.2626661,-123.0569099,Bon's Off Broadway
1132,49.2879174,-123.1237682,SushiGo
1133,49.2420422,-123.1011291,Haiyi Seafood Restaurant
1134,49.0211881,-122.8049113,Primo's Mexican Grill
1135,49.2870647,-123.1128287,Miku
1136,49.0456065,-122.3622896,Tony's Place Restaurant
1137,49.1320952,-123.099192,Cora
1138,49.0578657,-122.4704514,Schnitzelz
1139,49.2818976,-123.118783,O Sushi
1140,49.1797321,-123.1377358,HK B.B.Q. Master
1141,49.2457056,-123.0659163,Green Lettuce
1142,49.1724288,-123.1361124,Ebisu
1143,49.2685558,-123.1186398,Branas
1144,49.2215669,-122.9885007,Tiny Kitchen
1145,49.2008416,-122.9115919,Kelly O'Bryans Restaurant
1146,49.2144651,-122.9881069,Asa Sushi
1147,49.1902621,-122.8482749,Dominion Bar & Kitchen
1148,49.1308243,-122.318072,Junction Sushi
1149,49.1308844,-122.3180976,Little Saigon
1150,49.2807525,-123.1171855,Fable Diner & Bar
1151,49.2775029,-123.125931,Mr. Greek
1152,49.277701,-123.125626,Umeda Japanese Cuisine
1153,49.277764,-123.125533,Dim Sum Master
1154,49.2777995,-123.125475,Brunch
1155,49.2543205,-123.2354781,Biercraft
1156,49.277417,-122.804773,Lazzez's Grill Indian Cuisine
1157,49.2756803,-123.121753,Cioppino's Mediterranean Grill
1158,49.2757912,-123.121587,Urban Thai Bistro
1159,49.2760962,-123.121114,Blue Water Cafe + raw bar
1160,49.256509,-123.0061178,Grand Dynasty
1161,49.2788186,-123.122058,Heirs Pears
1162,49.2794177,-123.120598,Cibo Trattora
1163,49.1571141,-122.781741,Fleetwood Sushi
1164,49.2446462,-123.0644833,Mui Ngo Gai
1165,49.238271,-123.0651803,Le BL Cafe
1166,49.2435959,-123.0623586,Happy Family Restaurant
1167,49.2847089,-123.110228,MoMo Sushi
1168,49.2827611,-123.1096481,Nuba
1169,49.1997143,-122.7779087,Pho Hung
1170,49.2805112,-123.1316527,Taki's Taverna
1171,49.280291,-123.1315739,Thai Basil
1172,49.2201791,-122.6627383,Daenamoo
1173,49.2179075,-122.6471171,Andiamo's Pizza & Pasta House
1174,49.2179089,-122.6470097,gm Restaurant
1175,49.3066529,-123.0085425,The Crab Shop
1176,49.0459218,-122.7821538,White Spot
1177,49.242659,-123.004039,Sushi S
1178,49.1493324,-123.1824756,Takeya Sushi
1179,49.285769,-123.124704,Neptune Chinese Kitchen
1180,49.2857504,-123.1212224,Victoria Chinese Restaurant
1181,49.2821447,-123.1337057,Davie Dosa Company
1182,49.282131,-123.134155,Halove
1183,49.2819972,-123.1334555,Downtown Sushi Bar
1184,49.2818284,-123.1336764,Al Basha
1185,49.3794658,-123.3355263,Tuscany Restaurant
1186,49.3795058,-123.334198,Rustique Bistro French Kitchen + Bar
1187,49.2477393,-123.2306549,Cafeteria
1188,49.2457475,-123.0660233,Viva Sushi Bar
1189,49.2472767,-123.0693382,My Chau Restaurant
1190,49.249422,-123.0763136,J.R Taste Of Ceylon
1191,49.2496987,-123.0762996,Knight Street Cafe
1192,49.2493186,-123.0736284,Pink Peppercorn Seafood House
1193,49.2493978,-123.0739174,Icy Bar
1194,49.0409767,-123.0876795,SMK Smokery + Bar
1195,49.2806426,-123.002827,Afghan Turkish Cuisine
1196,49.280825,-123.002543,Ramen Gaoh
1197,49.2808472,-123.002014,Take Sushi
1198,49.281146,-123.0019578,Stan's Pizza Joint
1199,49.2811411,-122.999343,Paul's Restaurant
1200,49.2811551,-122.9991927,X-Site Grill & Bistro
1201,49.2808607,-122.998234,Lulu's Kitchen
1202,49.2811723,-122.995598,Sushi Bar Kilala
1203,49.2882329,-123.12745,Trish Juice
1204,49.0490449,-122.2946776,Roseland Restaurant
1205,49.0488203,-122.2954172,Golden Dragon Restaurant
1206,49.0554367,-122.3163275,Spice Kitchen The Indian Palette
1207,49.2893842,-123.114425,Mahony and Sons
1208,49.2307501,-122.906371,Sushi Box
1209,49.2529024,-123.0822591,Green Lemongrass
1210,49.2778449,-123.1276301,Nando's
1211,49.2691037,-123.03418,Poor Italian
1212,49.2679589,-123.150722,Indian Oven
1213,49.266816,-123.006264,Kokoro Tokyo Mazesoba
1214,49.2654154,-123.0050598,Claudio's Ristorante
1215,49.2072631,-122.8751564,Vegan Pizza House
1216,49.2636934,-122.847522,Doppio Zero Pizza
1217,49.286852,-123.122304,Sciué Italian Bakery Caffé
1218,49.2863832,-123.1227103,Mangez Mangez
1219,49.2187177,-122.5575533,Pizza Hut
1220,49.2060057,-122.5574372,Kanaka Pizza
1221,49.2169297,-122.5964739,Bobby Sox 50's Diner
1222,49.2203067,-122.5965779,Aburiya Sushi
1223,49.2203563,-122.6059427,Woking Dragon Chop Suey House
1224,49.2167403,-122.6035004,Pho Song
1225,49.217285,-122.598132,Hamada Sushi
1226,49.2169124,-122.5998873,Freshii
1227,49.2167843,-122.6000998,Indian Zaika
1228,49.2160889,-122.6006848,King's Kitchen
1229,49.2159546,-122.5894792,Sushiro
1230,49.2161973,-122.5895253,China Kitchen Restaurant
1231,49.1541426,-123.1245757,Ginger Indian Cuisine
1232,49.1541434,-123.124473,Hainan Kitchen
1233,49.1541434,-123.1243481,Wang Ji Restaurant
1234,49.1545123,-123.1244276,Bubble Waffle Cafe
1235,49.1548778,-123.1243287,Sushi Aria
1236,49.2348621,-123.1157596,Bonjour Banh Mi
1237,49.2848035,-123.0662391,Straight & Marrow
1238,49.2804529,-123.096989,Barbara
1239,49.0467103,-122.77872,Sal y Limon
1240,49.0452225,-122.7785093,Curry Lounge
1241,49.2630345,-123.1012046,Bento Box
1242,49.2629465,-123.0967703,Thai Son
1243,49.2621476,-123.1007434,Ignite Pizzeria
1244,49.2567053,-123.1018939,Toshi
1245,49.2558002,-123.101559,The General Public
1246,49.254976,-123.100871,Anh And Chi
1247,49.2555281,-123.1010432,Nikkyu Japanese Restaurant
1248,49.2777282,-123.0971626,Hunnybee Bruncheonette
1249,49.2636258,-123.1852738,Brown's Social House
1250,49.2804535,-123.1073569,Tokyo in April
1251,49.2634253,-123.2089645,Rice Burger
1252,49.2764341,-122.8434759,Chuncheon Dakgalbi Korean Pan BBQ & Grill
1253,49.2765175,-122.8551767,Charlie's Mexican Restaurant
1254,49.276899,-122.8558499,Saint St Grill
1255,49.2838341,-122.8277546,bb.q Chicken
1256,49.2785627,-122.819069,Mercado Mexican Market & Taqueria
1257,49.2785211,-122.8191716,Sushi Mori
1258,49.277387,-122.8061293,GangNam Tofu Soup
1259,49.2323282,-123.026942,Canffle
1260,49.2202285,-122.9723739,Grandma Liu Hot Pot
1261,49.2788585,-123.1233752,The Heaven on Granville
1262,49.2861906,-123.127545,Horin Ramen + Sake
1263,49.289843,-123.1326201,Zabu Chicken
1264,49.2908178,-123.1341534,Kaneko Hannosuke
1265,49.1825418,-123.1341384,Lido Restaurant
1266,49.1784676,-123.1300551,Fujiwara Tofu Shop
1267,49.1922469,-123.1316302,Bruno
1268,49.2863175,-123.140629,Kesari Kitchen
1269,49.171158,-123.1416095,Harold's
1270,49.263253,-123.1271262,A Taste of Vietnam
1271,49.2341725,-123.1401391,Hikari Cafe
1272,49.267836,-123.145926,Mi Casa Mexicana
1273,49.2541779,-123.1149577,Sushi 7 Japanese Bar & Grill
1274,49.2542829,-123.114953,Monsoon Curry Indian Restaurant
1275,49.254585,-123.1149427,Potluck Hawker Eatery
1276,49.2873114,-123.1171281,Elephant & Castle
1277,49.2837081,-123.113616,Cartems Donuterie
1278,49.2634035,-123.187281,Sushi Inn Japanese Cuisine
1279,49.2641834,-123.1840519,Handi
1280,49.264051,-123.175052,Mamalee
1281,49.2640525,-123.1748296,Ramen Sanpachi
1282,49.2640536,-123.1749099,
1283,49.2640299,-123.1745214,nuba
1284,49.2639522,-123.169522,Tandoori Fusion
1285,49.2639326,-123.1676074,iki Japanese Bistro
1286,49.2631809,-123.1221438,Donair Spot
1287,49.2626734,-123.06937,Donair Dude
1288,49.2261659,-122.99175,PalPal Noodle House
1289,49.2217132,-122.9806709,Hanwoori Korean Restaurant
1290,49.2244672,-122.987867,Marutama Ramen
1291,49.2230063,-122.932963,Baba Sweets & Restaurant
1292,49.1808035,-123.1346606,Creating Taste
1293,49.2149754,-122.9228305,Ho Fung
1294,49.2662923,-123.1395508,The Farmers Apprentice
1295,49.2792632,-123.11611,Sonoya
1296,49.2769826,-122.857998,Lougheed Wonton Restaurant
1297,49.279574,-123.122817,El Furniture Warehouse - Granville
1298,49.2791296,-123.1234852,The Dime
1299,49.3230668,-123.102002,Orto Artisan Pasta
1300,49.2792354,-123.122725,Moulin Rouge
1301,49.2584652,-123.0451425,Prince Chinese Seafood Restaurant
1302,49.2586122,-123.044569,Sushi Royal House
1303,49.2840032,-123.1254481,Guu Original Thurlow
1304,49.2851116,-123.1259645,Zefferelli's Spaghetti Joint
1305,49.1946138,-122.9278485,Rozzini's
1306,49.2755714,-123.1355604,Beach Ave Bar & Grill
1307,49.2445983,-123.0643641,The Tipper
1308,49.2783793,-123.098194,Phnom Penh Restaurant
1309,49.1556048,-122.9135779,Todai Sushi
1310,49.2802489,-122.965618,Hong Sushi
1311,49.1780886,-123.1274542,Deer Garden Signatures
1312,49.2638164,-123.101665,Side Hustle Sandwiches
1313,49.2643668,-123.1011666,Nirvana Restaurant
1314,49.1849463,-123.1292553,Sing Yee Chinese Restaurant
1315,49.2806177,-122.981784,Sushi Giwa
1316,49.279293,-123.0974274,Oyster Express
1317,49.3012245,-123.157071,The Teahouse
1318,49.0772323,-122.6703484,Hirame Sushi
1319,49.0223678,-122.8084716,The Boathouse Restaurant
1320,49.0748694,-122.6671597,Ocean Park Pizza
1321,49.0910013,-122.6070308,Hitori Japanese Restaurant
1322,49.2187837,-122.9504257,Arisu Authentic Korean BBQ
1323,49.2109227,-123.1304363,Applause
1324,49.2633589,-123.1140975,Marulilu Cafe
1325,49.2269711,-123.1287459,Phở Hòa
1326,49.2179614,-122.6488262,Townhall Public House
1327,49.2179441,-122.6483993,Pizza Hut
1328,49.2241125,-122.941647,Chili Dragon
1329,49.1859102,-122.7987909,Barcelos
1330,49.1856176,-122.7987874,BJS Korean Restaurant
1331,49.2865749,-123.1228586,Sushi California
1332,49.1857232,-122.8001712,Jade Valley
1333,49.1857184,-122.7998785,Maguro
1334,49.1857231,-122.8000278,Bubble Waffle Cafe
1335,49.2122666,-122.9214422,Tamarind Hill
1336,49.2521275,-122.7364115,Pizza Hut
1337,49.2521626,-122.736559,Pür & Simple
1338,49.2524566,-122.737076,Grelhados
1339,49.228745,-122.999858,Hanppy Tofu Hotpot
1340,49.2288178,-123.000092,The Bao Place
1341,49.1576414,-122.890742,Denny's
1342,49.153596,-122.890861,Asian Jazz
1343,49.288292,-123.14005,Banana Leaf
1344,49.2663263,-123.0695173,Sushi Ville
1345,49.2008261,-122.9133226,Poke Bar
1346,49.2878856,-123.1184927,Chewies
1347,49.2859601,-123.127406,Ebisu
1348,49.2809013,-123.1322613,Mumbai Local
1349,49.2679231,-123.069879,Belgian Fries
1350,49.3361269,-123.0393028,Brown's Socialhouse Lynn Valley
1351,49.2733734,-123.0693436,Oca Pastificio
1352,49.2804382,-123.118103,Tractor
1353,49.2328886,-123.0657559,Kokoro Ramen
1354,49.2387761,-123.0509093,Oiso Kimchi Cafe
1355,49.1486894,-123.181721,Freshii
1356,49.3117439,-123.0790782,Fishworks
1357,49.0583832,-122.3780427,Famoso Neapolitan Pizzeria
1358,49.0582753,-122.3790558,Ono's Sushi
1359,49.0584965,-122.3808116,Milestones
1360,49.0582246,-122.3808805,The Canadian Brewhouse & Grill
1361,49.0587782,-122.3795062,FATBURGER
1362,49.2690886,-123.1044784,Manna Sushi
1363,49.2218285,-122.994549,Preference
1364,49.2845287,-123.1252531,Red Robin
1365,49.2812536,-123.0489809,The Slocan Restaurant
1366,49.2726439,-123.1472791,Triple-O's
1367,49.283151,-123.103757,Sitar
1368,49.2830557,-123.1044882,The Greek Gastown
1369,49.2831498,-123.1049771,Boneta
1370,49.2834563,-123.1023773,Incendio
1371,49.2835451,-123.102736,The Birds & The Beets
1372,49.2716008,-123.155219,Kitsilano Natural Foods (restaurant)
1373,49.2655867,-122.9787358,White Lotus Cafe
1374,49.2644913,-123.185225,Ton Ton Sushi
1375,49.2182153,-122.957809,B&D Viet Cuisine
1376,49.2182407,-122.9585264,Nao Sushi
1377,49.2809895,-123.0611172,The Red Wagon Cafe
1378,49.2793266,-123.1007929,Floata Seafood Restaurant
1379,49.2666151,-123.069889,Best Falafel
1380,49.266539,-123.0698996,Addis Cafe
1381,49.2666995,-123.0695093,Kishimoto
1382,49.2795339,-123.123812,Sushi Star
1383,49.2833798,-123.116411,The Keg
1384,49.2481253,-123.0711517,Tana Ethiopian Cuisine
1385,49.3253307,-123.0720196,Palermo Cucina
1386,49.222185,-122.9441808,Balkan House Restaurant
1387,49.2219633,-122.9446227,Oh! Zzhu Sam Korean Restaurant
1388,49.2219037,-122.9457969,Pho Edmonds
1389,49.2202852,-122.9483959,Na-Re Korean Kitchen
1390,49.2201502,-122.948649,Bún Riêu Phương Nam
1391,49.1326485,-123.0915094,Freshii
1392,49.2041008,-122.9092522,Pizzeria Ludica
1393,49.2743503,-123.069358,Kulinarya Filipino Eatery
1394,49.2805195,-122.965727,Saray Turkish Cuisine
1395,49.2586249,-123.0275436,Triple O’s
1396,49.2794927,-123.1143598,Triple O’s
1397,49.2251548,-123.1018741,Freshii
1398,49.3162246,-122.9533502,Spicy Ginger Kitchen
1399,49.3266797,-122.9497215,Deep Cove Pizza
1400,49.3266813,-122.950228,Deepwater Micro Eatery
1401,49.2784378,-123.124545,Templeton's
1402,49.3281564,-123.0725782,Yaas Grill House
1403,49.3279483,-123.0724252,Indian Fusion
1404,49.3279098,-123.0724225,Haru Sushi
1405,49.3278757,-123.0724225,Spicy House
1406,49.3271092,-123.0724394,Sushi UMI
1407,49.3267987,-123.0724488,Tequila Cocina Cantina & Traditional Mexican Eatery
1408,49.3267241,-123.0724511,Chilli Lee Szechuan Cuisine
1409,49.3266678,-123.0724511,Pawans Indian Kitchen
1410,49.2662407,-123.247515,Nori
1411,49.2662923,-123.2471797,Jamjar
1412,49.2580788,-123.101389,Pizza Garden
1413,49.2576896,-123.1014017,Pho Goodness
1414,49.2580858,-123.1009383,Canteen Mitra
1415,49.2579684,-123.1009418,The Basic
1416,49.2562828,-123.101014,Pizzeria Grano
1417,49.2492559,-122.8670655,Pizza Hut
1418,49.2487073,-122.8586736,Hangang Korean Restaurant
1419,49.2194809,-122.9499055,Lhy Thai
1420,49.1777017,-123.1346039,Baiyulan Shanghai Cuisine
1421,49.1776771,-123.1348876,iTofu - Tofu Dessert Specialty Shop
1422,49.2010553,-122.9166426,Cockney Kings
1423,49.285504,-123.118815,Cactus Club Cafe
1424,49.312732,-123.0573094,Sansho
1425,49.2403647,-123.1017953,Bon Cafe
1426,49.2817168,-123.133062,Thida Thai
1427,49.2815405,-123.132811,Tom Sushi
1428,49.2814332,-123.132631,Pho Central
1429,49.2813594,-123.132504,India Bistro
1430,49.2169479,-122.5987873,Jimmy's Lunch Box
1431,49.0904674,-123.0790855,Ricky's
1432,49.2196857,-122.9700212,Pho Den
1433,49.2292745,-123.0905061,Pampanga's Cuisine
1434,49.3264675,-123.1203591,Ali & Baba
1435,49.2839422,-123.0998366,Deacon's Corner
1436,49.2301514,-123.003978,Trattoria Italian Kitchen
1437,49.189941,-122.847175,Pho Hoa Hong Vietnamese Restaurant
1438,49.2791093,-123.1235206,Crave India
1439,49.2791978,-123.123389,Fresh Donair
1440,49.2808947,-123.127338,C Prime Modern Italian Steak & Wine
1441,49.2506224,-123.1680028,Moki's Pizza
1442,49.2793624,-123.107407,Qieu
1443,49.1326298,-123.0912205,Hiroshi Japanese Ramen
1444,49.2867846,-123.1243963,Karma Lounge
1445,49.2810042,-123.05329,Laska King
1446,49.2678944,-123.1462762,Ajiya Sushi
1447,49.2687186,-123.1109926,Clubhouse Japanese Restaurant
1448,49.263836,-123.1137936,Uma Sushi
1449,49.2630818,-123.1264173,Johnny Rockets
1450,49.1845268,-122.8005461,Palmyra Mediterranean Grill
1451,49.1025494,-122.6471192,Poseidon Greek Restaurant
1452,49.2774536,-123.131337,Daikichi Sushi
1453,49.2655909,-123.0700235,Harambe
1454,49.2711559,-123.1358083,The Keg
1455,49.2706361,-123.1366509,The Vancouver Fish Company
1456,49.2707436,-123.1363777,Tony's Fish and Oyster Café
1457,49.2719814,-123.134014,The Sandbar
1458,49.2631692,-123.1205957,Pacific Poke
1459,49.3391722,-123.103953,Bufala
1460,49.1193301,-122.8235877,Round Table Pizza
1461,49.2883664,-123.139947,Ofra's Kitchen (Israel)
1462,49.2149696,-122.98807,Stem Japanese Eatery
1463,49.2246246,-122.9882078,MeetRice Noodles
1464,49.2685203,-123.1706945,Bangkok City Cafe
1465,49.2685192,-123.1706435,Nishi Restaurant
1466,49.2874308,-123.1149042,Hapa Izakaya
1467,49.2723233,-123.1548129,Juanita
1468,49.2724034,-123.1548232,Kibune Sushi
1469,49.2333359,-123.034702,Gold Train Express Restaurant
1470,49.2713039,-123.1548459,The King's Head Public House
1471,49.2708087,-123.1470449,Ice Blue Sky Japanese Bistro
1472,49.286421,-123.140262,Red Umbrella Cafe
1473,49.2795681,-123.117362,Memphis Blues BBQ House
1474,49.2857988,-123.115359,Curry Hut Indian Bistro
1475,49.283152,-123.115938,St. Regis Bar & Grill
1476,49.2780334,-123.1251115,The Pawn Shop
1477,49.2810095,-123.0537462,El Pulgarcito
1478,49.281406,-123.049888,James on Hastings Chinese Restaurant
1479,49.2725927,-122.7556417,Ball Breakers Billiards & Bistro
1480,49.2727998,-122.7566183,Sushi Village
1481,49.1566806,-122.7799855,Great Pizza
1482,49.156815,-122.7791604,Sunny Dragon
1483,49.2784906,-123.12445,Thai Away Home
1484,49.2786415,-123.124214,Thai Town Restaurant
1485,49.1326737,-122.3388665,Fatburger
1486,49.132705,-122.3390044,Pizza Hut
1487,49.1876678,-122.5519418,Pizza
1488,49.2667886,-123.0067414,JOEY Burnaby
1489,49.255696,-123.0896525,Bells And Whistles
1490,49.2079075,-123.1403014,Ikura
1491,49.1902806,-122.8450093,Sushi King George
1492,49.2660404,-123.0695193,Cafe Deux Soleils
1493,49.2203471,-122.6051271,Maple Sushi
1494,49.0555686,-122.80074,Chopstick Corner
1495,49.3359374,-123.0389261,Valley Sushi
1496,49.306933,-123.034556,Freshii
1497,49.279737,-123.126662,Tokyo Joe's
1498,49.2630984,-123.1176938,Rogue Kitchen & Wetbar
1499,49.2672796,-123.113113,De Dutch
1500,49.2749694,-123.069283,Lunch Lady
1501,49.3742756,-123.2738287,FreshSlice Pizza
1502,49.3745957,-123.2747995,Olive & Anchor
1503,49.2830756,-123.108384,The Charles Bar
1504,49.2637273,-123.2549792,Mercante
1505,49.264159,-123.1654098,Sunshine Classic Diner
1506,49.1577863,-122.7783764,Yoko Sushi
1507,49.3739709,-123.2744351,C Lovers
1508,49.3744327,-123.2744359,Troll's
1509,49.3347926,-123.1829344,Vina Vietnamese Restaurant
1510,49.3331843,-123.1823282,Beach House Restaurant
1511,49.2792951,-123.0978928,Jang Mo Jib Korean Restaurant
1512,49.2803757,-123.118593,Paramount Fine Foods
1513,49.2825785,-122.8255002,Murasaki
1514,49.2874102,-123.1175261,Nightingale
1515,49.1948776,-122.8443305,DONI Korean Restaurant
1516,49.189735,-122.8474426,Top King's Restaurant & Cafe
1517,49.1899411,-122.847341,Umami Ramen + Grill
1518,49.1899408,-122.8468149,Phở Tâm
1519,49.1892746,-122.8463189,Grandt Kitchen
1520,49.1889683,-122.8461338,Sushi & Roll
1521,49.1880887,-122.8465151,Bubble 88
1522,49.1845873,-122.843637,Taste Of Punjab
1523,49.1640178,-122.8897492,Jaipur Indian Restaurant
1524,49.1636337,-122.8916709,La Meza Grill
1525,49.16585,-122.8909244,Lotus Restaurant
1526,49.2498681,-123.11519,Sushi TonTon
1527,49.2498312,-123.1155922,Landmark Hot Pot House
1528,49.2557109,-123.1153628,Thai Away Home
1529,49.2562902,-123.114871,Dong Tai Xiang Shanghai Dim Sum
1530,49.2629908,-123.1125009,Sushi California
1531,49.2637006,-123.1214739,Dynasty Seafood Restaurant
1532,49.2634656,-123.1200652,Shanghai Lu Restaurant
1533,49.2631016,-123.1200437,i-Cafe
1534,49.2634282,-123.117023,Freshii
1535,49.263463,-123.0998125,La Petite Cuillère
1536,49.2629456,-123.0972191,Sushi Yama
1537,49.2544914,-123.101278,Pizza Hut
1538,49.2652958,-123.1449311,Delhi 6
1539,49.2666232,-123.1454087,Novo Pizzeria & Winery
1540,49.2590347,-123.1528742,Lunch Club
1541,49.1023131,-122.6464613,Original Joe's Restaurant & Bar
1542,49.2241498,-122.941697,KnChicken
1543,49.2221718,-122.9314343,Donair & Sub House
1544,49.2126549,-122.920993,Freshii
1545,49.202219,-122.9093032,Big Star Sandwich Co.
1546,49.2023265,-122.90911,
1547,49.2014641,-122.9114661,PIVA Modern Italian
1548,49.2005492,-122.9140706,Kushi Mura Izakaya
1549,49.2266354,-122.8930257,Bluefin Sushi
1550,49.2244623,-122.8921382,Steve's Poké Bar
1551,49.224011,-122.89263,Freshii
1552,49.2472892,-122.891137,Jimmy's Place
1553,49.2819847,-122.798641,Singapore Hawker
1554,49.2785491,-123.1157632,Marutama Ra-men
1555,49.26948,-123.1072592,Bao Down
1556,49.2695161,-123.1091368,Nook
1557,49.2759188,-123.121377,Elisa Wood-Fired Grill
1558,49.1980659,-122.9788287,Barcelos
1559,49.1980915,-122.9790111,GT II Noodle House
1560,49.198081,-122.9789295,Papa Greek
1561,49.223865,-123.0909986,New Novelty Restaurant
1562,49.1781894,-123.127678,Cherry's Food House
1563,49.2813917,-123.0579502,Dachi
1564,49.2726415,-123.149817,Octopus Garden
1565,49.2743433,-123.123269,Rodney's Oyster House
1566,49.2797738,-122.792036,Deer Garden
1567,49.2798058,-122.7934554,Fuhao
1568,49.2493369,-122.859161,Lucky Gate
1569,49.1661003,-122.664152,The Chopped Leaf
1570,49.2796947,-123.0977955,Maxims Restaurant
1571,49.2798121,-123.0994906,The Boss Bakery & Restaurant
1572,49.2634179,-123.1396207,Cactus Club Cafe
1573,49.2803076,-123.117925,JINYA Ramen Bar
1574,49.2877455,-123.141335,Papi's Seafood and Oyster Bar
1575,49.234607,-123.1821906,Crêpe & Café
1576,49.0163122,-122.7854295,Washington Avenue Grill
1577,49.1266611,-123.190482,Little Mexico Cantina
1578,49.1266591,-123.1906415,Mega Sushi
1579,49.1250402,-123.185123,Dave's Fish and Chips
1580,49.2105129,-122.9338646,Pho 99
1581,49.1071012,-122.6619273,Dragon Garden
1582,49.1109603,-122.6464696,Ricky’s Country Restaurant
1583,49.2631084,-123.1018353,Tatta Chulha
1584,49.167203,-122.6661067,
1585,49.291036,-123.1363444,Buckstop
1586,49.2911074,-123.1362394,Modern Handi Indian Cuisine
1587,49.1778884,-123.121767,Royal Beef
1588,49.1784482,-123.1222914,Poke Bar
1589,49.1781065,-123.1222611,Ai-Boiled
1590,49.1779155,-123.122417,Tanlu Grill
1591,49.1780153,-123.1253824,MICHA
1592,49.1787864,-123.125777,Boom Chicken
1593,49.1790172,-123.1253975,Shine Valley Lamb Soup
1594,49.2876567,-123.140997,Babylon Restaurant & Bar
1595,49.2881773,-123.1402032,Falafel King
1596,49.2881505,-123.1402521,Ben Gong's Tea
1597,49.2880491,-123.1404023,España Restaurant
1598,49.2807898,-123.002171,Jade Palace Chinese Restaurant
1599,49.2858999,-123.126487,Earls
1600,49.0392529,-122.2919352,Little Japan Sushi
1601,49.1335575,-122.3375237,The Wee Chippie Fish & Chips
1602,49.0573082,-122.3146642,Sushi Nara
1603,49.1190026,-122.7321747,Umami Sushi
1604,49.2194503,-122.949967,Street Hotpot
1605,49.0526842,-122.692342,Chillibar
1606,49.0513639,-122.6920063,TheGood Pho
1607,49.2769189,-122.857763,Henry's Kitchen
1608,49.2776673,-122.859512,Rosa's Cucina Italiana
1609,49.2663545,-123.1397685,Grapes and Soda
1610,49.0659257,-122.3794337,Zaika Tastes of India
1611,49.2656179,-123.254191,Bento Sushi
1612,49.1149319,-122.6680737,Brown's Socialhouse Langley Centre
1613,49.1149853,-122.667885,SushiCo Japanese Restaurant
1614,49.112948,-122.6638414,Firecrust Neapolitan Pizzeria
1615,49.2808877,-123.0075969,Kazu
1616,49.2808428,-123.00413,Pizza Hut
1617,49.2885778,-123.1306706,Katsuya Robson
1618,49.2909157,-123.134307,Pizza Hut
1619,49.2911138,-123.1345739,Pho Express Ankor Noodle House
1620,49.2918599,-123.1351344,West End Veterinary Clinic
1621,49.2917397,-123.1353043,Nook
1622,49.2900302,-123.1334933,Pokerrito
1623,49.2901318,-123.1336518,Viet Sub Vietnamese Cuisine
1624,49.2891307,-123.1321209,Pho 37 Vietnamese Restaurant
1625,49.2852965,-123.1262599,CinCin Ristorante + Bar
1626,49.26232,-123.0884041,Fassil Ethiopian Restaurant
1627,49.2894547,-123.131936,Jang Mo Jib Korean Restaurant
1628,49.2790983,-123.117706,The Noodle Box
1629,49.2823081,-123.1225427,Bacchus
1630,49.284215,-123.112463,Pholicious
1631,49.2851543,-123.1182162,Copper Chimney
1632,49.3101585,-123.080058,Tap & Barrel
1633,49.2781376,-123.1263175,Mangos Kitchen Bar
1634,49.2835359,-123.114343,Kim House
1635,49.1989822,-122.8142808,Malaysian Hut
1636,49.2761557,-123.128164,White Spot
1637,49.2837533,-123.112099,The Poke Guy
1638,49.2765095,-123.1274224,Torizo
1639,49.2767764,-123.1264629,Tequila Cocina
1640,49.2872474,-123.1189254,Meat & Bread
1641,49.3116318,-123.0748959,Sushi Mania
1642,49.3120538,-123.0743405,V-Nam
1643,49.1905117,-122.9504389,Nando's
1644,49.2825244,-123.114459,Ramen Gojiro
1645,49.0589538,-122.4922744,Pizza Hut
1646,49.0580042,-122.4919543,White Spot
1647,49.2473597,-123.1853955,Moon Sushi
1648,49.2040744,-123.1353732,Panang Delight Cafe at Marpole
1649,49.039149,-122.2948452,Restaurant 62
1650,49.1250437,-123.182526,Cucina Piccolo Restaurant
1651,49.1236709,-123.182326,Hog Shack Cook House
1652,49.125047,-123.1855427,Steveston Pizza Co.
1653,49.1248697,-123.184767,Kun's Omakase Bar
1654,49.2257688,-122.93757,Dahlak African Restaurant
1655,49.2544329,-123.0204338,Agra Tandoori Restaurant
1656,49.2544364,-123.020646,Argo Greek
1657,49.2910377,-123.134512,Flower & Horse In Spring
1658,49.2915752,-123.135063,Kintaro Ramen
1659,49.290869,-123.136172,Gon's Izakaya
1660,49.2909663,-123.136455,Ma Dang Goul
1661,49.2911579,-123.1361617,Zakkushi
1662,49.2914,-123.135787,Ukrainian Village Restaurant
1663,49.2869447,-123.14199,Hook Cantina
1664,49.2906257,-123.136971,Damso Restaurant
1665,49.2907749,-123.13675,Khaghan Restaurant
1666,49.178677,-123.131809,Szechuan Delicious Restaurant
1667,49.1784624,-123.1299646,Cocoru
1668,49.1784638,-123.1298745,Chengdu Spicy Restaurant
1669,49.178472,-123.1296141,Manzo Japanese Restaurant
1670,49.1776149,-123.128193,Taiwan Taipei Original Pot
1671,49.1775012,-123.1295891,Seto Japanese Restaurant
1672,49.177509,-123.1298099,Wang Shun Ge Restaurant
1673,49.1778825,-123.1305288,Hanok Korean Restaurant
1674,49.1668778,-123.1338885,Beijing Noodle House
1675,49.1642073,-123.1363731,Pho An Nam
1676,49.1728469,-123.1361738,Neptune Seafood Restaurant
1677,49.3108849,-123.0799822,Raglan’s Bistro
1678,49.0244881,-123.069153,White Spot
1679,49.2211251,-123.0660355,Elephant Noodle House
1680,49.2762481,-122.8439694,Kurumba
1681,49.1636295,-123.1351088,Golden Paramount Seafood Restaurant
1682,49.1640975,-123.1363854,John 3:16 Malaysian Delights
1683,49.1633547,-123.1350931,Storeys Cafe
1684,49.1633761,-123.1359431,Pokey Okey
1685,49.1622749,-123.132539,Wing Kee Restaurant
1686,49.16229,-123.1316477,Redbud Restaurant
1687,49.1620454,-123.1316764,Sea Fortune Restaurant
1688,49.1691429,-123.136796,Tian Shi Fu Restaurant/Milksha
1689,49.1692987,-123.136793,Wang Ji Asian Cuisine
1690,49.1775672,-123.138318,Gyu-Kaku Japanese BBQ
1691,49.1777196,-123.1382252,Afuri Ramen + Dumpling
1692,49.1754682,-123.1466896,Origo Club
1693,49.173516,-123.1475786,Milkcow Cafe
1694,49.1737598,-123.146485,Blackball
1695,49.1737723,-123.1475183,Seorae Korean BBQ
1696,49.1834675,-123.135392,Chengdu Xiao Chi Restaurant
1697,49.3058854,-123.01636,Barcelo's Flame Grilled Chicken
1698,49.305542,-123.0300905,Stuffies Pastries Cafe
1699,49.1736004,-123.1475891,Freshii
1700,49.0398938,-122.3377554,Rivers Restaurant
1701,49.3266703,-122.9508312,Deep Cove Osaka
1702,49.3266807,-122.950443,Pomegranate
1703,49.3269281,-122.9493346,Arms Reach Bistro
1704,49.2641652,-123.145922,Papaya Hut Restaurant
1705,49.2650193,-123.145884,Unchai Thai Restaurant
1706,49.1979422,-122.9748877,Boston Pizza
1707,49.258962,-123.0076085,Creme De La Crumb
1708,49.3222679,-123.0714,Palki Indian
1709,49.3260816,-123.0724628,Sushi Katsu
1710,49.2338606,-123.1399736,Kyuzo Japanese Restaurant
1711,49.2826802,-123.1205496,Art Gallery Cafe
1712,49.2631179,-123.1187815,A.BENTO
1713,49.0243805,-123.0698999,Roy's Indian
1714,49.2786794,-123.115383,Tacos & Cantina
1715,49.2707499,-123.0694252,Bar Corso
1716,49.1053162,-122.7978245,The Whole Bowl
1717,49.1703856,-122.5788401,Mangia E Scappa
1718,49.2652543,-122.9774816,Park Crest Diner
1719,49.2316906,-123.0295705,Dumpling King
1720,49.1569438,-122.7814272,Dae Ji Cutlet House
1721,49.1529031,-122.8908615,New Ruby Restaurant
1722,49.1585734,-122.8898854,Miyagi Sushi
1723,49.1607464,-122.8908477,Nordel Pan Pizza & Chaat House
1724,49.1611833,-122.8912739,Pho 99
1725,49.1737665,-122.8897746,Kerala Kitchen
1726,49.1757457,-122.8906325,Pamir Diner Afghan Cuisine
1727,49.2886584,-123.130792,The Captain's Boil
1728,49.2886197,-123.130733,Menya ITTO
1729,49.1104583,-122.6767503,Jerusalem Grill
1730,49.2787902,-123.0995388,Ba Le Sandwich Shop
1731,49.2786955,-123.0995441,Straight Outta Brooklyn NYC Pizza
1732,49.2187365,-122.961673,Wings on Kingsway
1733,49.2819214,-123.106024,Save On Meats
1734,49.2857312,-123.116236,Hydra Estiatorio Mediterranean
1735,49.1180446,-122.8885912,
1736,49.1188846,-122.8885543,Porto Fino Express
1737,49.1179332,-122.8892502,Green Lettuce Restaurant
1738,49.3359055,-123.0376105,Pizza Hut
1739,49.2457248,-122.8934345,Yan's Garden
1740,49.2775292,-122.7924643,Kam Ding Seafood Restaurant
1741,49.2809119,-123.0634229,On Lok Restaurant & Wun Tun House
1742,49.1990538,-122.8133577,Pho Viet City
1743,49.1990451,-122.8131686,Nam San
1744,49.283799,-123.12091,Notch8
1745,49.2834916,-123.119373,Hawksworth Restaurant
1746,49.1994341,-122.8134619,Man Sen Kitchen
1747,49.1994321,-122.8137061,UR Restaurant
1748,49.2803833,-123.1074046,Tokyo In April
1749,49.2760108,-123.121902,Yopo
1750,49.2759195,-123.1245551,Nuba
1751,49.2756856,-123.1220661,Brix & Mortar
1752,49.2796018,-123.1005962,Bao Bei
1753,49.277847,-123.1248161,The Edge
1754,49.2693508,-123.1308317,Dockside
1755,49.2819129,-122.7999784,Nagano Sushi
1756,49.2664116,-123.014025,White Spot
1757,49.2621089,-123.099208,Pür & Simple
1758,49.2627174,-123.1000189,Freshii
1759,49.2708993,-123.069787,Arriva Ristorante
1760,49.2734675,-123.1191918,Oeb Breakfast Co.
1761,49.2707223,-122.7551988,Pho Noodle House
1762,49.2573934,-123.1269764,Falafully Good
1763,49.2766922,-123.120266,The Parlour
1764,49.2707965,-123.1466888,Annalena
1765,49.240208,-123.0649364,In and Out Donair / Burger
1766,49.240412,-123.0655441,Deutsches Haus Restaurant
1767,49.2678955,-123.0694445,Spade
1768,49.2688079,-123.069416,Sal y Limon
1769,49.2684563,-123.069407,Social
1770,49.245058,-123.0653916,Pho Duy Vietnamese Restaurant
1771,49.23238,-123.065304,Jun Yuan Restaurant
1772,49.1645574,-122.6646365,Nando's
1773,49.2674124,-123.0699392,Riddim & Spice
1774,49.2773604,-122.8583325,Aroma Indian Restaurant
1775,49.2366753,-122.8529953,I Love Sushi
1776,49.2373483,-122.8529856,Pho 99
1777,49.2332102,-122.8521201,Cactus Club Cafe
1778,49.0474627,-122.289777,Once Upon @ Thai
1779,49.2114693,-122.9356642,Spring Garden
1780,49.110595,-122.6768607,Boston Pizza
1781,49.249871,-123.0340403,Kopitiam Malaysia
1782,49.281205,-123.0133052,Admiral
1783,49.2552645,-123.114945,Deccan Chillli’s
1784,49.2554118,-123.1149559,Pho Xe Lua 24
1785,49.2555365,-123.1149376,Café Gloucester
1786,49.187425,-123.1241112,Manzo Japanese Restaurant
1787,49.1751422,-123.134478,The Dolar Shop Richmond
1788,49.1781718,-123.125382,Avery Cafe Restaurant
1789,49.1785695,-123.1258748,Liuyishou Hotpot
1790,49.1791592,-123.1250272,Memory Corner
1791,49.1785578,-123.1352521,AAA Restaurant
1792,49.1776609,-123.1355664,Icy Bar
1793,49.1794685,-123.1351174,Super Stars Cafe
1794,49.1796123,-123.1350537,Happy Valley Village Restaurant
1795,49.1800399,-123.1351841,Kizami Japanese Cuisine
1796,49.3404585,-123.2397327,Isetta Cafe Bistro
1797,49.2735971,-122.7881837,Ma Now Thai Kitchen
1798,49.1253012,-123.1816751,Steveston Seafood House
1799,49.2958081,-122.8029346,Banshan BBQ Restaurant
1800,49.2963606,-122.8035235,Polly Pokinos Gourmet Wings
1801,49.2964195,-122.803499,O Sushi
1802,49.2964743,-122.8034783,Plateau Pizza
1803,49.2790508,-122.8292606,Freshii
1804,49.2749531,-123.118655,La Terrazza
1805,49.2766293,-123.1256382,Sushi Yamato
1806,49.2767875,-123.1258792,Basil Pasta Bar
1807,49.2768123,-123.1259319,Jako Sushi
1808,49.0218373,-122.6241106,Bacchus Bistro
1809,49.0458259,-122.776698,Earls
1810,49.2393818,-123.0530866,Come Along Seafood Restaurant
1811,49.2212931,-122.6731054,Sango Japanese Restaurant
1812,49.2201339,-122.6632333,Pho Tau Bay
1813,49.2602981,-123.0700119,Jamaican Pizza Jerk
1814,49.2824839,-123.123624,Italian Kitchen
1815,49.0577805,-122.3145312,AfterThoughts
1816,49.2874208,-123.1412347,Won More Szechuan Cuisine
1817,49.2873068,-123.1414408,The Loft Lounge
1818,49.2803185,-123.1014751,Chinatown BBQ
1819,49.2268328,-123.1288101,Sushi Mura
1820,49.2569664,-123.0892948,Straight Outta Brooklyn NYC Pizzeria
1821,49.1027064,-122.6450894,Golden River
1822,49.1990389,-122.8164158,Sarpanch Sweets & Restaurant
1823,49.0292608,-122.8006128,Penang Szechuan Restaurant
1824,49.1123607,-122.7297011,Diamond Buffet
1825,49.2643867,-123.1772264,Thai Basil
1826,49.137448,-122.8912035,Chopped Leaf
1827,49.2766052,-122.790244,Peaceful Restaurant
1828,49.2734,-122.7884457,Freshii
1829,49.2678271,-122.791133,Pho Net Viet
1830,49.2666807,-122.7766788,Eastern Pearl Seafood Restaurant
1831,49.2120324,-123.140886,Rib & Chicken
1832,49.2119395,-123.1408297,Neptune BBQ House
1833,49.2107727,-123.1406781,Talay Thai Restaurant
1834,49.2188391,-123.1015778,Best Quality Sweets & Restaurant
1835,49.2190954,-123.102085,Original Tandoori Kitchen
1836,49.2436897,-122.892992,Busan Daeji Gukbap Korean Restaurant
1837,49.2436966,-122.893547,Dae Ji
1838,49.2436903,-122.893415,ARISU Authentic Korean BBQ
1839,49.2442616,-122.894725,Jejudo
1840,49.214052,-122.9883198,Avi Pizza
1841,49.1075632,-122.733518,Jumbo Pizza
1842,49.2894379,-123.1327171,Nam San
1843,49.1187323,-123.1586368,Village Sushi
1844,49.2472107,-122.893513,White Spot
1845,49.1788487,-123.1313628,Kanpeki Teppanyaki & Seafood Bar
1846,49.2661144,-123.2483285,KINTON RAMEN
1847,49.1697734,-122.5781626,Fortitude
1848,49.2011371,-122.9170153,Hayashi Sushi
1849,49.1075697,-122.6652207,Emilio Finatti Pizzeria
1850,49.1177852,-122.6752846,Star Lake Chinese Restaurant
1851,49.1193413,-122.6911917,Hugo's Mexican Kitchen
1852,49.1191147,-122.689348,Deluxe Noodle House
1853,49.1242302,-122.7049034,Memphis Blues Barbeque House
1854,49.124381,-122.7052164,Village Sushi
1855,49.1052465,-122.6584091,Wong's Chinese Seafood Restaurant
1856,49.105066,-122.6521419,Brogan's Kalma Family Deli
1857,49.1078659,-122.6596014,Pho Tau Bay
1858,49.1574206,-122.777201,Dragon's Chop Suey House
1859,49.0908788,-123.0833668,Pizza Hut
1860,49.0907963,-123.083564,Pho Haven
1861,49.090376,-123.0835048,Taverna Gorgona
1862,49.278797,-123.124006,The Mexican Antojitos y Cantina
1863,49.2655997,-123.1219806,Szechuan Chili Restaurant
1864,49.2657222,-123.1223185,Yanaki Sushi
1865,49.2714049,-123.1059572,Gusto
1866,49.2814927,-123.133151,Dosa and Curry on Davie
1867,49.2642796,-123.0695194,Jamjar Folk Lebanese Food
1868,49.2310864,-123.0657999,The First Dessert
1869,49.3162577,-122.9710365,Genji Japanese Restaurant
1870,49.2189388,-122.9563573,Mr. Greek Donair Shop
1871,49.1844134,-123.091757,Himalaya Sweets and Restaurant
1872,49.283846,-123.109409,Greedy Pig
1873,49.2829428,-123.1092138,Haru Korean Kitchen
1874,49.1857185,-122.7997834,Bubble World
1875,49.1869381,-122.8000621,Pizza Hut
1876,49.1869046,-122.8005383,Earls
1877,49.0577015,-122.31523,Cora Breakfast and Lunch
1878,49.2544706,-123.023183,Simba's Grill
1879,49.3791266,-123.338625,Bowen Sushi
1880,49.2695189,-123.1082181,Ophelia
1881,49.2579633,-123.2531257,Feast
1882,49.2642189,-122.9145424,Canadian Pizza Plus
1883,49.2448238,-123.0241648,Border Burrito
1884,49.2591718,-122.98297,K Chicken
1885,49.1513954,-122.8654334,Aggarwal Sweets
1886,49.1303537,-122.8683502,Prabu Sweets
1887,49.0166862,-122.7850696,La Baia Ristorante Italiano
1888,49.0172268,-122.7919054,Montgomery's Cottage Lunch
1889,49.0178151,-122.7937715,deluxe
1890,49.0176587,-122.7933284,Poultry in Motion
1891,49.0176231,-122.7932267,Zapoteca Mexican Grill & Seafood
1892,49.2205454,-122.6566132,Fox's Reach Pub & Grill
1893,49.2209437,-122.65772,Sushi Misoya
1894,49.2209922,-122.6580814,Pho Phuong Hong Vietnamese Restaurant
1895,49.2201878,-122.656863,De Dutch Pannekoek House
1896,49.2201784,-122.6577511,Big Star Sandwich Co.
1897,49.2199011,-122.6569389,Halu Sushi
1898,49.2196284,-122.646351,Maple Leaf Indian Cuisine
1899,49.0624718,-122.4985558,Mazatlán Mexican Restaurant
1900,49.1976689,-123.1788426,Lift Bar & Grill
1901,49.2618673,-122.8903666,Me + Crêpe
1902,49.2187027,-122.557624,Shinobi Sushi Express
1903,49.312704,-123.142586,Prospect Point Bar & Grill
1904,49.2680378,-123.1569284,Hi Nippon
1905,49.2715034,-122.7553352,Yokozna Sushi
1906,49.2708428,-122.7572194,Sky Dragon
1907,49.2676015,-122.7733233,San Remo Pizza
1908,49.2202683,-122.649603,The Keg
1909,49.269559,-123.139986,Sushi HANABI
1910,49.2810356,-123.104202,Calabash
1911,49.2812096,-122.9985806,SOCRATES in the Heights
1912,49.2808576,-123.001903,Hakkaku Ramen
1913,49.2808568,-123.00183,Pho Mr. Do
1914,49.2809121,-123.009697,Tentatsu Japanese Restaurant Burnaby
1915,49.2540566,-122.8940094,Japolo
1916,49.2541048,-122.8939334,Thai Chef
1917,49.2542012,-122.8937814,Boil It World
1918,49.2809713,-123.021901,Green & Oak Malaysian Restaurant
1919,49.2809655,-123.022524,Baci Ristorante
1920,49.2812554,-123.0273975,Just Waffles
1921,49.2812281,-123.0189331,L'Artista Italian Restaurant
1922,49.2812306,-123.0184319,La Villetta Ristorante
1923,49.2811922,-123.014615,Butchers Block BBQ
1924,49.2811984,-123.0148864,Sfinaki Greek Taverna
1925,49.2812046,-123.015846,Thai's Saigon Bistro
1926,49.2809353,-123.015973,Chad Thai Restaurant
1927,49.2809296,-123.015467,Sopra Sotto
1928,49.2809026,-123.0116693,The Gray Olive Cafeteria
1929,49.2809073,-123.0124327,Thai Cafe
1930,49.2811762,-123.0106046,Kamamarui Ramen & Don
1931,49.2809102,-123.009145,Sushi UOmo
1932,49.2270126,-123.0909079,So Hyang Korean Cuisine
1933,49.251337,-123.1272962,Sabra Kosher Bakery & Restaurant
1934,49.2257511,-123.1011754,Main Kabab Hut
1935,49.2824452,-122.798602,Delicious Pho
1936,49.282223,-122.7986042,Legend House
1937,49.2722718,-123.0693195,Famoso
1938,49.2724859,-123.0693157,Memphis Blues
1939,49.2597756,-123.0700861,The Burrow
1940,49.2554261,-123.1153387,Tokyo John
1941,49.0210977,-122.8045694,Little India
1942,49.2437583,-122.969604,Scallion's Bistro
1943,49.0218637,-122.80721,India chaat house
1944,49.0221551,-122.8081589,Cilantro Indian Cuisine
1945,49.0215128,-122.8059452,Uli's Restaurant
1946,49.0218104,-122.8069734,Jan's On The Beach
1947,49.0222397,-122.8084669,The Surfside Grill
1948,49.0215908,-122.8063027,CCTV Chinese Restaurant
1949,49.0220295,-122.8077823,Le Vol Au Vent
1950,49.0215475,-122.8061366,Shinjuku Japanese Cuisine
1951,49.0216646,-122.8065643,CHARLIE don't SURF
1952,49.0227215,-122.8100823,Cosmos Greek Restaurant
1953,49.022932,-122.8104937,West Beach Bar & Grill
1954,49.2809135,-123.014742,Brokenrice
1955,49.2637649,-123.1390412,Bin 942
1956,49.263554,-123.1256923,Happy Wood BBQ House
1957,49.3241041,-123.1121169,Lion Hot Pot
1958,49.287548,-123.1210389,Heritage Asian Eatery
1959,49.2873634,-123.1216746,Indian Delicacy
1960,49.2876652,-123.1218959,Symphonie
1961,49.2519721,-123.0800661,Bean Banh Mi
1962,49.2431228,-123.0619725,New Mandarin Seafood Restaurant
1963,49.2758,-123.069653,Sunrise Pizza
1964,49.2754879,-123.069294,Mogu Fried Chicken
1965,49.2691846,-123.045359,East One Seafood Restaurant
1966,49.1155756,-122.6820948,DK Chicken
1967,49.2812636,-123.0553386,Roundel Café
1968,49.2693923,-123.1040792,Hon's Wonton House
1969,49.2791744,-123.0973495,Kokomo
1970,49.2795719,-123.099495,RedBeef Noodle Kitchen
1971,49.2804603,-123.0981436,Kissa Tanto
1972,49.2818502,-123.1041702,Pidgin
1973,49.2826468,-123.104529,Kozak Ukraïnian Restaurant
1974,49.3287497,-123.161155,SSaL Korean Cuisine
1975,49.3287478,-123.1612764,Amici Restaurant
1976,49.328498,-123.1633547,Cindy's
1977,49.3285008,-123.1610892,Swad Indian Kitchen
1978,49.328499,-123.1612718,Rose Persian Cuisine
1979,49.3277375,-123.1583448,Handi Indian Restaurant
1980,49.3283947,-123.1584273,Bene Sushi
1981,49.3289098,-123.1562157,Shanghai Village
1982,49.3282183,-123.1551118,Lao Chi Chinese Cuisine
1983,49.327463,-123.153993,Earls
1984,49.3284002,-123.1562601,Ginger & Soy Chinese Cuisine
1985,49.2615797,-123.1381671,Mazahr Lebanese Kitchen
1986,49.191214,-122.9472524,Tora Sushi
1987,49.1392122,-123.1383543,Hong Kong Flavor Restaurant
1988,49.282833,-123.115419,Peaceful Restaurant
1989,49.2688121,-123.0448771,Thai Son Restaurant
1990,49.229018,-122.892597,Thai New West
1991,49.2831514,-123.10652,Revel Room
1992,49.2499831,-123.1151714,Corner 23
1993,49.2038818,-122.9084373,Sushi Yen
1994,49.1765172,-122.8887189,Super Pho
1995,49.0492421,-122.300516,Nikko Sushi
1996,49.0492408,-122.3008535,Tong Fei
1997,49.049511,-122.2950498,Zaika Tastes of India
1998,49.3283772,-123.1581268,Five Corners
1999,49.2208206,-123.066098,TM Vietnamese Food
2000,49.2600212,-123.101385,Maizal RMF
2001,49.2827102,-123.104761,Tacofino
2002,49.2819798,-123.1063174,Moltaqa
2003,49.2786385,-123.115315,Delicious Pho
2004,49.3219576,-123.0979162,Shandiz Persian Restaurant
2005,49.3216656,-123.0981576,Pizza Hut
2006,49.1203265,-122.8923213,Donair Affair
2007,49.0330673,-123.0692551,Browns Socialhouse
2008,49.0311535,-123.0691973,Pizza Hut
2009,49.264856,-123.108608,Emelle's Westside Kitchen
2010,49.0899804,-123.0840124,Ladner Sushi
2011,49.0899795,-123.0842928,Pho Saigon
2012,49.1340425,-122.6905,
2013,49.3233764,-123.0725666,Sadra
2014,49.3237611,-123.072516,Yaas
2015,49.0488685,-122.2898692,NAMaBURGER
2016,49.2737945,-122.788163,Hearthstone Pizza
2017,49.2750379,-123.1211163,Milssam Tacorea
2018,49.217228,-122.5936509,Red Robin
2019,49.2755361,-123.1208411,Yaletown Brewing Company
2020,49.2735245,-123.0693646,Fets Whisky Kitchen
2021,49.2665275,-123.0695122,Siddhartha's Indian Kitchen
2022,49.2643516,-123.1764671,Midam Cafe
2023,49.2270308,-123.0077239,L'OTUS Cake Boutique
2024,49.1642937,-123.1353047,Wo Fung Noodle Express
2025,49.1712741,-123.134055,Yang Guo Fu Malatang
2026,49.1704108,-123.1404738,75 West Coast Grill
2027,49.2663539,-123.104097,Field & Social
2028,49.2528231,-123.1011318,Published on Main
2029,49.2903487,-123.1342776,Momo Sushi
2030,49.1637042,-122.6618939,Oak & Thorne
2031,49.1965922,-123.1282591,The Buffet at River Rock
2032,49.2906777,-123.133913,Nero Belgian Waffle Bar
2033,49.265746,-123.0050219,Pho d'lite
2034,49.2669012,-123.0057206,Browns Socialhouse
2035,49.2672176,-123.005743,The Viet Noodle Guy
2036,49.1870173,-123.1331863,Hong Mao Restaurant
2037,49.2478265,-123.0903617,Grand View Szechuan Restaurant
2038,49.2471335,-123.0903681,Egg & Co.
2039,49.2059041,-123.0111841,Freshii
2040,49.2059579,-123.0298393,Sushi Mura
2041,49.2316361,-123.1558458,Chi Noodle Bar
2042,49.2344735,-123.1561983,Baoguette Vietnamese Bistro
2043,49.2347899,-123.1593373,La Vita
2044,49.2347788,-123.1590939,Sofra Mediterranean Kitchen
2045,49.2344048,-123.1529424,Chef Hung Taiwanese Beef Noodle
2046,49.2643738,-123.1367483,Mixxbao Taiwanese Fusion
2047,49.2585455,-123.1385207,Breakfast Table
2048,49.263507,-123.1416235,Suika Japanese Restaurant
2049,49.2636608,-123.1535715,Z&W Shanghai Kitchen
2050,49.2636687,-123.1541802,Temaki Sushi
2051,49.116251,-122.6703778,Chopped Leaf
2052,49.2315354,-123.0056472,Pearl Castle Cafe
2053,49.2314869,-123.005697,TerraCotta Boyz
2054,49.2297497,-123.0049419,Hanju
2055,49.2296175,-123.0049944,Green Bamboo
2056,49.2295475,-123.0051017,Ali Shan
2057,49.2291311,-123.000868,Sushi Garden
2058,49.0487975,-122.2596822,Ocean Park Pizza & Steak house
2059,49.1245965,-123.1812812,Saigon By Night
2060,49.2813183,-123.058906,Jackalope's Neighborhood Dive
2061,49.0527588,-122.3147521,Oriental Village
2062,49.0513643,-122.3131198,Sirocco Mediterranean Cuisine
2063,49.0514556,-122.3131141,Super India Sweets & Restaurant
2064,49.0515645,-122.3131129,Pizza Spot
2065,49.050201,-122.3227878,Sui Sha Ya Japanese Restaurant
2066,49.2396385,-123.0540931,Kwan Luck Restaurant
2067,49.2396667,-123.053706,I&I Jamaican Restaurant
2068,49.2396139,-123.0535933,Yue Ting Seafood Restaurant
2069,49.2375423,-123.049398,Top Cantonese Cuisine Restaurant
2070,49.237142,-123.0482787,McKim Wonton Mein Saga
2071,49.2442677,-123.0628353,Crab Hot Lau
2072,49.2444085,-123.063154,Vegan Pizza House
2073,49.2441194,-123.063346,Zamzam Grill
2074,49.2380141,-123.0652047,Fatty Cow Seafood Hot Pot
2075,49.2372505,-123.0655991,Kalvin's Szechuan Restaurant
2076,49.2373336,-123.0655854,Hanoi Old Quarter Restaurant
2077,49.0554068,-122.271957,J's Pizza
2078,49.2637874,-123.1396816,Lin Chinese Cuisine And Tea House
2079,49.2879677,-123.1214202,SMAK
2080,49.2801513,-123.109872,Chambar
2081,49.2802313,-123.1103114,Fatburger
2082,49.2803275,-123.1104938,Famoso Pizzeria & Bar
2083,49.21334,-122.898698,Victoria Sushi
2084,49.2718513,-123.1354756,Popina Cantina
2085,49.2729836,-123.1356009,Popina
2086,49.1389485,-122.8427025,Indian Haveli Restaurant
2087,49.0520407,-122.3259697,King Kabob
2088,49.2812593,-123.0541858,Le Pho
2089,49.3261888,-123.139149,ZUBU Ramen
2090,49.3259573,-123.1395117,Legendary Hot Pot
2091,49.3264809,-123.1374744,Hello Nori
2092,49.0504288,-122.2899542,Anne Maries Cafe
2093,49.2568919,-123.0892293,Sal y Limon
2094,49.2640247,-123.1860912,The Kitchen Dada Sushi Bar & Grill
2095,49.0502826,-122.3175498,Nando's
2096,49.2741,-123.1219573,Salsa and Agave Mexican Grill
2097,49.2505553,-123.0773106,Po Kong
2098,49.2804925,-122.9779761,OLOVE GREEK KITCHEN
2099,49.2012628,-122.9160264,Burger Heaven
2100,49.2534133,-123.082088,Moon Cafe
2101,49.2680211,-123.1558693,Simpatico
2102,49.2681152,-123.1595834,Peaceful Restaurant
2103,49.2681046,-123.1582908,Raisu
2104,49.2682035,-123.1463002,Pizza Hut
2105,49.2680391,-123.157013,Au Comptoir
2106,49.2680363,-123.156837,Burgoo
2107,49.2680988,-123.1580755,Maria's Taverna
2108,49.1304635,-122.3235243,Corona's Mexican Restaurant
2109,49.2682486,-123.1484496,Tacofino
2110,49.2683097,-123.1546683,Bishop's
2111,49.2682522,-123.1486085,Freshii
2112,49.2682731,-123.1536977,Connie's Cook House
2113,49.2682417,-123.1481368,Tractor
2114,49.2309625,-122.8929552,Le Pizzo Bella
2115,49.327348,-123.1533305,Ancora
2116,49.2630947,-123.1527749,Yogi-Yo
2117,49.3279686,-123.1536521,Nishiki Sushi
2118,49.3279573,-123.1535723,Chez Michel
2119,49.0601165,-122.4930308,Tomo Sushi
2120,49.0582922,-122.4944818,
2121,49.1152735,-122.6555155,Roadrunner Restaurant
2122,49.1121157,-122.6506343,Cora
2123,49.1116381,-122.6807389,Kimchi Palace Restaurant
2124,49.1097163,-122.6789018,IHOP
2125,49.1172095,-122.6795523,Pasta Polo
2126,49.1170227,-122.6751086,Denny's
2127,49.1188311,-122.6788097,Townhall Public House
2128,49.1171673,-122.6698182,Katana
2129,49.1585375,-122.6667356,Sushi Avenue
2130,49.1631639,-122.6621658,Sushi Gio Japanese Restaurant
2131,49.1621967,-122.6593209,Bangkok Kitchen
2132,49.1633941,-122.6580103,Chamnamoo Korean Restaurant
2133,49.1633817,-122.6588882,Akane Japanese Restaurant
2134,49.2777744,-123.1275201,Firecrust Neopolitan Pizzeria
2135,49.2799722,-123.125311,Guu Garden
2136,49.2081527,-123.1401353,Solo Pasta
2137,49.2426401,-123.0590302,Thanh Xuân Café
2138,49.2566365,-123.0891236,Ba-Le Deli & Bakery
2139,49.2629935,-123.0569275,Trocadero Pizza & Steak House
2140,49.224395,-122.988696,Kamamarui Ramen & Sushi
2141,49.2641935,-123.1846791,Dijon
2142,49.2986719,-122.7866886,Sushi Boss
2143,49.050054,-122.2892935,Sushiteria & Catering
2144,49.048871,-122.2892755,New Passage To India
2145,49.0474412,-122.289805,The Pho'enix Diner
2146,49.273703,-123.0693627,Havana
2147,49.0496386,-122.290533,La Reina DT
2148,49.1565582,-122.7783376,Pho Pink Lotus
2149,49.278025,-122.799012,Neptune Seafood Restaurant
2150,49.2397994,-123.029963,Sushi Taku
2151,49.2650465,-123.0242721,Knight & Day Restaurant
2152,49.0585182,-122.3788725,Freshii
2153,49.1951116,-122.8014418,Moxie's Grill Bar
2154,49.2258004,-122.992721,Kiku Sushi
2155,49.2257494,-123.066213,Weirdo Cafe
2156,49.2317717,-123.0300412,Kuan Zhai Road Restaurant
2157,49.1805362,-123.1351434,Sanbo Chinese Restaurant
2158,49.1800344,-123.1353466,Lu Charcoal Grill
2159,49.1791167,-123.1355537,Boiling Point
2160,49.1704984,-123.1394916,4 Stones Vegetarian Cuisine
2161,49.1786407,-123.1283737,Me + Crepe
2162,49.2641806,-123.1662307,Ah Long Sushi
2163,49.263916,-123.1659164,Nat's New York Pizzaria
2164,49.2839593,-122.7933224,Titi Home Made Food
2165,49.1931246,-123.129265,Marutama Ra-men
2166,49.1856018,-123.130556,Kam Tou Seafood Restaurant
2167,49.1856924,-123.1285427,Uncle Lu Restaurant
2168,49.1844834,-123.1283585,L'OTUS Cake Boutique
2169,49.1851439,-123.1302167,0755 Restaurant & Lounge
2170,49.1856961,-123.1287132,Lamb Hot Pot
2171,49.1856882,-123.1291863,Yuu Japanese Tapas
2172,49.1852777,-123.1295109,Gyo-O
2173,49.1849382,-123.129882,Sushi House
2174,49.1837251,-123.1267119,Shun Xin Restaurant
2175,49.1844731,-123.1262142,Sushi Hachi
2176,49.1831403,-123.1249702,Garden City Hot Pot
2177,49.1899409,-122.8469496,New Town Bakery
2178,49.2543136,-122.9182623,Foodies on Board
2179,49.254194,-123.2360217,Neptune Chinese Kitchen
2180,49.2641408,-123.156987,Tacos Jorge at Glitch Bar
2181,49.2745142,-122.7900239,BB.Q Chicken
2182,49.2755314,-123.122013,Tavern
2183,49.1698172,-123.1675486,Smokehouse Sandwich Co.
2184,49.139437,-123.0115501,Tilbury Cafe
2185,49.2644934,-123.1011624,Slim's BBQ
2186,49.2784067,-123.1187517,Tutto
2187,49.2625456,-123.0708373,Hon's Wonton House
2188,49.283064,-123.106967,La Casita
2189,49.1123531,-122.6772465,Wings Langley
2190,49.256182,-123.10104,El camino's
2191,49.2778235,-122.911773,Steve's Poké Bar
2192,49.2778577,-122.9119847,Pizza Hut
2193,49.2825398,-122.798527,Browns Socialhouse
2194,49.2660937,-123.2430436,5 Tastes
2195,49.3124756,-123.0777481,Sushi Bella
2196,49.1391144,-123.0122187,Hadi's Restaurant
2197,49.1475964,-122.8655122,Afghan Chopan Restaurant
2198,49.2541983,-122.914779,Oneway Cafe
2199,49.1916881,-122.9486435,Pho Express
2200,49.0496886,-122.303762,Bavaria Restaurant
2201,49.2882956,-123.14051,Big Bang Sushi
2202,49.0407869,-122.3369251,Dake Sushi Japanese Restaurant
2203,49.2702991,-123.069427,Loula's Taverna + Bar
2204,49.2890203,-123.1221386,JOS
2205,49.1321235,-123.0954421,Danny's Wun Tun Restaurant
2206,49.1321183,-123.0949806,Pho 37
2207,49.3262139,-123.1359438,Nando's
2208,49.268189,-123.069879,BC Donair
2209,49.2014501,-122.9819222,Cactus Club
2210,49.2805385,-123.1316982,Samurai Japanese Restaurant
2211,49.2636948,-123.1364258,Shin Ju
2212,49.2393603,-123.065574,Western Lake
2213,49.257888,-123.114594,Shiro Japanese Restaurant
2214,49.0589295,-122.4953007,PHO TRAN
2215,49.2538725,-123.0014254,Austin Grill
2216,49.2412434,-123.1016941,Long's Noodle House
2217,49.3125637,-123.0782305,
2218,49.2661196,-123.0698892,Tangent Cafe
2219,49.1184303,-122.8020322,Golden Panda Restaurant
2220,49.1051552,-122.8057256,Mahek Restaurant & Lounge
2221,49.1057505,-122.802128,White Spot
2222,49.2772564,-123.118737,Ignite Pizzeria
2223,49.2682067,-123.1464995,Bibo
2224,49.1294146,-122.318647,White Spot
2225,49.2642078,-123.168625,Pho Japolo
2226,49.2705384,-123.1473721,Rocky Mountain Flatbread Co.
2227,49.2563231,-123.1849414,Jethro's Fine Grub
2228,49.255977,-123.18492,Kuma
